country,state,name,lat,lng,timezone,altitude
AD,,les Escaldes,42.50729,1.53414,Europe/Andorra,1033
AD,,Andorra la Vella,42.50779,1.52109,Europe/Andorra,1037
AE,,Warīsān,25.16744,55.40708,Asia/Dubai,12
AE,,Umm Suqaym,25.15491,55.21015,Asia/Dubai,1
AE,,Umm Al Quwain City,25.56473,55.55517,Asia/Dubai,2
AE,,Ar Rāshidīyah,25.22499,55.38947,Asia/Dubai,10
AE,,Ras Al Khaimah City,25.78953,55.9432,Asia/Dubai,2
AE,,Zayed City,23.65416,53.70522,Asia/Dubai,118
AE,,Khawr Fakkān,25.33132,56.34199,Asia/Dubai,20
AE,,Kalbā,25.0513,56.35422,Asia/Dubai,15
AE,,Jumayrā,25.20795,55.24969,Asia/Dubai,5
AE,,Dubai,25.07725,55.30927,Asia/Dubai,24
AE,,Dibba Al-Fujairah,25.59246,56.26176,Asia/Dubai,16
AE,,Dibba Al-Hisn,25.61955,56.27291,Asia/Dubai,4
AE,,Dayrah,25.27143,55.30207,Asia/Dubai,10
AE,,Sharjah,25.33737,55.41206,Asia/Dubai,6
AE,,Ar Ruways,24.11028,52.73056,Asia/Dubai,16
AE,,Ḩattā,24.80073,56.12726,Asia/Dubai,331
AE,,Al Fujairah City,25.11641,56.34141,Asia/Dubai,15
AE,,Al Ain City,24.19167,55.76056,Asia/Dubai,275
AE,,Ajman City,25.40177,55.47878,Asia/Dubai,2
AE,,Adh Dhayd,25.28812,55.88157,Asia/Dubai,114
AE,,Abu Dhabi,24.45118,54.39696,Asia/Dubai,6
AE,,Abū Hayl,25.28413,55.33153,Asia/Dubai,3
AE,,As Saţwah,25.22192,55.27459,Asia/Dubai,9
AE,,Al Ḩamīdīyah,25.40001,55.52925,Asia/Dubai,15
AE,,Al Waheda,25.29173,55.33822,Asia/Dubai,-1
AE,,Al Karama,25.24004,55.30106,Asia/Dubai,4
AE,,The Palm Jumeirah,25.11607,55.13506,Asia/Dubai,-9999
AE,,Bur Dubai,25.26038,55.29891,Asia/Dubai,11
AE,,Khalifah A City,24.42588,54.605,Asia/Dubai,0
AE,,Mirdif,25.22443,55.41412,Asia/Dubai,24
AE,,Hawr al ‘Anz,25.27744,55.33675,Asia/Dubai,5
AE,,Mankhūl,25.24612,55.29222,Asia/Dubai,0
AE,,Nāyf,25.27139,55.30323,Asia/Dubai,9
AE,,Al Murar al Qadīm,25.27576,55.30738,Asia/Dubai,8
AE,,Al Warqaa,25.19272,55.42013,Asia/Dubai,29
AE,,International City,25.16383,55.40987,Asia/Dubai,15
AE,,Dubai Marina,25.08525,55.14646,Asia/Dubai,-9
AE,,Dubai Internet City,25.09538,55.16171,Asia/Dubai,-9
AE,,Al Safa,25.17047,55.23336,Asia/Dubai,0
AE,,Ar Rumaylah,25.40338,55.4334,Asia/Dubai,2
AE,,Al Jurf,25.41814,55.50791,Asia/Dubai,6
AE,,Al Majaz,25.32354,55.38774,Asia/Dubai,10
AE,,Dubai Festival City,25.22177,55.35733,Asia/Dubai,4
AE,,Dubai International Financial Centre,25.2106,55.27787,Asia/Dubai,7
AE,,Dubai Investments Park,25.00827,55.15682,Asia/Dubai,5
AE,,Jebel Ali,25.00255,55.10811,Asia/Dubai,5
AE,,Bani Yas City,24.30978,54.62944,Asia/Dubai,14
AE,,Musaffah,24.35893,54.48267,Asia/Dubai,7
AE,,Al Shamkhah City,24.39268,54.70779,Asia/Dubai,34
AE,,Reef Al Fujairah City,25.14479,56.24764,Asia/Dubai,129
AE,,Al Bada'a,25.22462,55.26888,Asia/Dubai,11
AE,,Al Muteena,25.27375,55.32265,Asia/Dubai,20
AE,,Al Mizhar First,25.24805,55.44128,Asia/Dubai,24
AE,,Dubai Silicon Oasis,25.11985,55.38718,Asia/Dubai,11
AE,,Al Furjan,25.02651,55.14565,Asia/Dubai,16
AE,,Business Bay,25.18544,55.26969,Asia/Dubai,16
AE,,Al Qusais 1,25.27925,55.36995,Asia/Dubai,11
AE,,Halwan,25.34586,55.42165,Asia/Dubai,16
AE,,Al Sajaah,25.31532,55.63211,Asia/Dubai,67
AE,,Lahbab,25.03763,55.59135,Asia/Dubai,125
AE,,Mohammed Bin Zayed City,24.34794,54.55368,Asia/Dubai,3
AF,,Zaranj,30.95962,61.86037,Asia/Kabul,489
AF,,Bāzār-e Yakāwlang,34.73525,66.97379,Asia/Kabul,2585
AF,,Taloqan,36.73605,69.53451,Asia/Kabul,801
AF,,Shīnḏanḏ,33.30294,62.1474,Asia/Kabul,1071
AF,,Shibirghān,36.66757,65.7529,Asia/Kabul,360
AF,,Shahrak,34.10737,64.3052,Asia/Kabul,2357
AF,,Sar-e Pul,36.21544,65.93249,Asia/Kabul,636
AF,,Sang-e Chārak,35.84972,66.43694,Asia/Kabul,1483
AF,,Aībak,36.26468,68.01551,Asia/Kabul,969
AF,,Rustāq,37.12604,69.83045,Asia/Kabul,1314
AF,,Qarqīn,37.41853,66.04358,Asia/Kabul,263
AF,,Qarāwul,37.21959,68.7802,Asia/Kabul,337
AF,,Pul-e Khumrī,35.94458,68.71512,Asia/Kabul,638
AF,,Paghmān,34.58787,68.95091,Asia/Kabul,2328
AF,,Nīlī,33.72178,66.13023,Asia/Kabul,2069
AF,,Nahrīn,36.0649,69.13343,Asia/Kabul,1138
AF,,Maymana,35.92139,64.78361,Asia/Kabul,864
AF,,Mehtar Lām,34.67139,70.20944,Asia/Kabul,795
AF,,Mazār-e Sharīf,36.70904,67.11087,Asia/Kabul,361
AF,,Lashkar Gāh,31.59382,64.37161,Asia/Kabul,786
AF,,Kushk,33.29565,61.95221,Asia/Kabul,1115
AF,,Kunduz,36.72895,68.857,Asia/Kabul,402
AF,,Khōst,33.33951,69.92041,Asia/Kabul,1183
AF,,Khulm,36.69736,67.69826,Asia/Kabul,445
AF,,Khāsh,31.52919,62.79055,Asia/Kabul,579
AF,,Khān Neshīn,30.5488,63.7888,Asia/Kabul,635
AF,,Khanabad,36.68304,69.11279,Asia/Kabul,499
AF,,Karukh,34.48108,62.5863,Asia/Kabul,1340
AF,,Kandahār,31.61332,65.71013,Asia/Kabul,1007
AF,,Kabul,34.52813,69.17233,Asia/Kabul,1798
AF,,Jalālābād,34.42647,70.45153,Asia/Kabul,575
AF,,Jabal os Saraj,35.11833,69.23778,Asia/Kabul,1612
AF,,Herāt,34.34817,62.19967,Asia/Kabul,927
AF,,Ghormach,35.73062,63.78264,Asia/Kabul,659
AF,,Ghazni,33.55391,68.42096,Asia/Kabul,2179
AF,,Gereshk,31.82089,64.57005,Asia/Kabul,830
AF,,Gardez,33.59744,69.22592,Asia/Kabul,2308
AF,,Fayzabad,37.11664,70.58002,Asia/Kabul,1210
AF,,Farah,32.37451,62.11638,Asia/Kabul,662
AF,,Eslam Qaleh,34.66667,61.06667,Asia/Kabul,726
AF,,Charikar,35.01361,69.17139,Asia/Kabul,1554
AF,,Baraki Barak,33.96744,68.9492,Asia/Kabul,1940
AF,,Bāmyān,34.82156,67.82734,Asia/Kabul,2550
AF,,Balkh,36.75635,66.8972,Asia/Kabul,348
AF,,Baghlān,36.13068,68.70829,Asia/Kabul,531
AF,,Ārt Khwājah,37.08571,69.47958,Asia/Kabul,481
AF,,Āsmār,35.03333,71.35809,Asia/Kabul,913
AF,,Asadābād,34.87311,71.14697,Asia/Kabul,837
AF,,Andkhōy,36.95293,65.12376,Asia/Kabul,306
AF,,Bāzārak,35.31292,69.51519,Asia/Kabul,1965
AF,,Markaz-e Woluswalī-ye Āchīn,34.12583,70.70778,Asia/Kabul,972
AG,,Saint John’s,17.12096,-61.84329,America/Antigua,12
AI,,The Valley,18.21704,-63.05783,America/Anguilla,19
AL,,Sarandë,39.87534,20.00477,Europe/Tirane,23
AL,,Pogradec,40.9025,20.6525,Europe/Tirane,702
AL,,Kukës,42.07694,20.42194,Europe/Tirane,351
AL,,Korçë,40.61861,20.78083,Europe/Tirane,869
AL,,Gjirokastër,40.07583,20.13889,Europe/Tirane,286
AL,,Elbasan,41.1125,20.08222,Europe/Tirane,128
AL,,Burrel,41.61028,20.00889,Europe/Tirane,315
AL,,Vlorë,40.4686,19.48318,Europe/Tirane,1
AL,,Tirana,41.3275,19.81889,Europe/Tirane,113
AL,,Shkodër,42.06828,19.51258,Europe/Tirane,12
AL,,Patos Fshat,40.64278,19.65083,Europe/Tirane,157
AL,,Patos,40.68333,19.61944,Europe/Tirane,61
AL,,Lushnjë,40.94194,19.705,Europe/Tirane,22
AL,,Lezhë,41.78361,19.64361,Europe/Tirane,7
AL,,Laç,41.63556,19.71306,Europe/Tirane,33
AL,,Krujë,41.50917,19.79278,Europe/Tirane,509
AL,,Kavajë,41.18556,19.55694,Europe/Tirane,19
AL,,Fier-Çifçi,40.71667,19.56667,Europe/Tirane,17
AL,,Fier,40.72389,19.55611,Europe/Tirane,20
AL,,Durrës,41.32355,19.45469,Europe/Tirane,0
AL,,Berat,40.70583,19.95222,Europe/Tirane,66
AM,,Kapan,39.20755,46.40576,Asia/Yerevan,774
AM,,Goris,39.51111,46.34168,Asia/Yerevan,1351
AM,,Artashat,39.95484,44.54874,Asia/Yerevan,834
AM,,Ararat,39.85494,44.6947,Asia/Yerevan,844
AM,,Yerevan,40.18111,44.51361,Asia/Yerevan,994
AM,,Vagharshapat,40.16557,44.29462,Asia/Yerevan,877
AM,,Sevan,40.5473,44.94171,Asia/Yerevan,1934
AM,,Masis,40.06595,44.43669,Asia/Yerevan,838
AM,,Vanadzor,40.80456,44.4939,Asia/Yerevan,1344
AM,,Gavar,40.35398,45.12386,Asia/Yerevan,1953
AM,,Ijevan,40.87877,45.14851,Asia/Yerevan,677
AM,,Hrazdan,40.5169,44.75591,Asia/Yerevan,1702
AM,,Armavir,40.15446,44.03815,Asia/Yerevan,870
AM,,Gyumri,40.7942,43.84528,Asia/Yerevan,1549
AM,,Dilijan,40.74037,44.86344,Asia/Yerevan,1345
AM,,Davtashen,40.21642,44.48088,Asia/Yerevan,1118
AM,,Charentsavan,40.40289,44.64447,Asia/Yerevan,1661
AM,,Avan,40.21436,44.57846,Asia/Yerevan,1276
AM,,Ashtarak,40.2991,44.36204,Asia/Yerevan,1142
AM,,Artik,40.61918,43.97207,Asia/Yerevan,1782
AM,,Abovyan,40.27368,44.63348,Asia/Yerevan,1423
AM,,Erebuni,40.13309,44.53009,Asia/Yerevan,1005
AM,,Nor Nork,40.19661,44.5669,Asia/Yerevan,1302
AM,,Ajapnyak,40.19917,44.47056,Asia/Yerevan,1061
AM,,Kanaker-Zeytun,40.22,44.53833,Asia/Yerevan,1280
AM,,Malatia-Sebastia,40.17396,44.4457,Asia/Yerevan,943
AM,,Kentron,40.17806,44.51303,Asia/Yerevan,997
AM,,Shengavit,40.1557,44.4779,Asia/Yerevan,930
AM,,Arabkir,40.20624,44.50365,Asia/Yerevan,1157
AO,,Saurimo,-9.66078,20.39155,Africa/Luanda,1071
AO,,Lucapa,-8.41915,20.74466,Africa/Luanda,955
AO,,Dundo,-7.36643,20.81557,Africa/Luanda,733
AO,,Chitato,-7.3,20.73333,Africa/Luanda,770
AO,,Cassanguidi,-7.48367,21.30339,Africa/Luanda,758
AO,,Lumbala,-14.10165,21.43531,Africa/Luanda,1122
AO,,Luau,-10.70727,22.22466,Africa/Luanda,1106
AO,,Cazombo,-11.89355,22.9024,Africa/Luanda,1121
AO,,Nzagi,-8.38549,15.30126,Africa/Luanda,906
AO,,Uíge,-7.60874,15.06131,Africa/Luanda,825
AO,,Tombôco,-6.80517,13.33017,Africa/Luanda,396
AO,,Soyo,-6.1349,12.36894,Africa/Luanda,10
AO,,Songo,-7.35207,14.84629,Africa/Luanda,721
AO,,Sanza Pombo,-7.31473,16.0024,Africa/Luanda,912
AO,,Ambrizette,-7.23116,12.8666,Africa/Luanda,19
AO,,Negage,-7.75938,15.2722,Africa/Luanda,1240
AO,,N'dalatando,-9.29782,14.91162,Africa/Luanda,795
AO,,Mussende,-9.95,14.8,Africa/Luanda,920
AO,,Mbanza Kongo,-6.26667,14.23833,Africa/Luanda,531
AO,,Maquela do Zombo,-6.05716,15.10971,Africa/Luanda,904
AO,,Malanje,-9.54015,16.34096,Africa/Luanda,1134
AO,,Lucala,-9.27268,15.25206,Africa/Luanda,708
AO,,Lubalo,-9.15445,19.28136,Africa/Luanda,1227
AO,,Luanda,-8.83682,13.23432,Africa/Luanda,73
AO,,Cunda diá Baze,-8.90769,17.05339,Africa/Luanda,732
AO,,Golungo Alto,-9.13333,14.76667,Africa/Luanda,666
AO,,Dondo,-9.68456,14.42788,Africa/Luanda,59
AO,,Dondo,-9.05,15.31667,Africa/Luanda,1127
AO,,Cuímba,-6.12085,14.62086,Africa/Luanda,536
AO,,Cuilo,-8.23619,19.52566,Africa/Luanda,1059
AO,,Cuango-Luzamba,-9.14583,18.04453,Africa/Luanda,863
AO,,Cazombo,-8.73204,15.37124,Africa/Luanda,997
AO,,Caxito,-8.57848,13.66425,Africa/Luanda,20
AO,,Cangandala,-9.78333,16.43333,Africa/Luanda,1104
AO,,Camabatela,-8.18812,15.37495,Africa/Luanda,1237
AO,,Cacuso,-9.42102,15.74668,Africa/Luanda,1068
AO,,Cabinda,-5.56717,12.19787,Africa/Luanda,3
AO,,Buco Zau,-4.76667,12.55,Africa/Luanda,49
AO,,Belize,-4.65,12.76667,Africa/Luanda,178
AO,,Barra do Dande,-8.47175,13.37011,Africa/Luanda,10
AO,,Bailundo,-9.57499,15.99442,Africa/Luanda,1101
AO,,Gama,-8.5675,13.47639,Africa/Luanda,8
AO,,Xangongo,-16.7444,14.97494,Africa/Luanda,1109
AO,,Alto Hama,-12.23333,15.55,Africa/Luanda,1509
AO,,Virei,-15.727,12.94961,Africa/Luanda,444
AO,,Ucuma,-12.96121,15.05958,Africa/Luanda,1906
AO,,Ucu Seles,-11.41237,14.30663,Africa/Luanda,1035
AO,,Tômbua,-15.80394,11.84485,Africa/Luanda,11
AO,,Sumbe,-11.20605,13.84371,Africa/Luanda,10
AO,,Quipungo,-14.81909,14.53504,Africa/Luanda,1302
AO,,Quibala,-10.73366,14.97995,Africa/Luanda,1284
AO,,Porto Amboim,-10.73251,13.76844,Africa/Luanda,36
AO,,Ondjiva,-17.06667,15.73333,Africa/Luanda,1113
AO,,Nharêa,-11.47512,16.96496,Africa/Luanda,1645
AO,,Mossamedes,-15.19611,12.15222,Africa/Luanda,13
AO,,Mungo,-11.83268,16.23613,Africa/Luanda,1533
AO,,Menongue,-14.6585,17.69099,Africa/Luanda,1355
AO,,Matala,-14.73272,15.03479,Africa/Luanda,1238
AO,,Luquembo,-10.73912,17.71766,Africa/Luanda,1125
AO,,Luena,-11.78333,19.91667,Africa/Luanda,1337
AO,,Lubango,-14.91717,13.4925,Africa/Luanda,1760
AO,,Longonjo,-12.90795,15.24845,Africa/Luanda,1451
AO,,Londuimbali,-12.23712,15.31697,Africa/Luanda,1567
AO,,Lobito,-12.3644,13.53601,Africa/Luanda,4
AO,,Cuíto,-12.38333,16.93333,Africa/Luanda,1715
AO,,Catchiungo,-12.56598,16.22589,Africa/Luanda,1818
AO,,Huambo,-12.77611,15.73917,Africa/Luanda,1716
AO,,Ganda,-13.01592,14.63502,Africa/Luanda,1267
AO,,Gabela,-10.85147,14.37993,Africa/Luanda,1045
AO,,Dombe Grande,-12.95167,13.1025,Africa/Luanda,51
AO,,Cuemba,-12.15,18.08333,Africa/Luanda,1374
AO,,Cubal,-13.03865,14.2455,Africa/Luanda,912
AO,,Conda,-11.10862,14.33621,Africa/Luanda,1039
AO,,Chitembo,-13.55,16.63333,Africa/Luanda,1607
AO,,Chinguar,-12.55708,16.33805,Africa/Luanda,1819
AO,,Cela,-11.42173,15.12345,Africa/Luanda,1308
AO,,Catumbela,-12.43002,13.54677,Africa/Luanda,12
AO,,Catabola,-12.15,17.28333,Africa/Luanda,1531
AO,,Capunda,-11.13333,14.46667,Africa/Luanda,1183
AO,,Camucuio,-14.11667,13.25,Africa/Luanda,670
AO,,Cambundi Catembo,-10.07531,17.55058,Africa/Luanda,1221
AO,,Camacupa,-12.01667,17.48333,Africa/Luanda,1473
AO,,Caluquembe,-13.86667,14.43333,Africa/Luanda,1774
AO,,Calulo,-10.00055,14.89519,Africa/Luanda,995
AO,,Caála,-12.8525,15.56056,Africa/Luanda,1742
AO,,Bocoio,-12.47017,14.13688,Africa/Luanda,972
AO,,Benguela,-12.57674,13.40268,Africa/Luanda,30
AO,,Balombo,-12.35426,14.77232,Africa/Luanda,1203
AO,,Baía Farta,-12.60417,13.19667,Africa/Luanda,18
AO,,Andulo,-11.48676,16.69663,Africa/Luanda,1686
AO,,Cambundi,-7.46856,17.03769,Africa/Luanda,515
AO,,Cafunfo,-8.7672,17.99572,Africa/Luanda,853
AO,,Santa Clara,-10.19156,15.43408,Africa/Luanda,1030
AO,,Quissecula,-11.39223,15.09201,Africa/Luanda,1344
AO,,Cambundi,-10.89481,17.76402,Africa/Luanda,1121
AR,,Zárate,-34.09584,-59.02423,America/Argentina/Buenos_Aires,27
AR,,Colonia Wanda,-25.97337,-54.56304,America/Argentina/Cordoba,207
AR,,Villa Ortúzar,-34.57973,-58.46829,America/Argentina/Buenos_Aires,26
AR,,Villa Ocampo,-28.48689,-59.35423,America/Argentina/Cordoba,64
AR,,Villa Lugano,-34.67907,-58.47263,America/Argentina/Buenos_Aires,19
AR,,Villaguay,-31.86767,-59.02701,America/Argentina/Cordoba,42
AR,,Villa Gesell,-37.26394,-56.97304,America/Argentina/Buenos_Aires,9
AR,,Villa de Mayo,-34.5108,-58.68059,America/Argentina/Buenos_Aires,22
AR,,Tortuguitas,-34.47513,-58.75367,America/Argentina/Buenos_Aires,31
AR,,Tigre,-34.42603,-58.57962,America/Argentina/Buenos_Aires,8
AR,,Tandil,-37.3287,-59.1369,America/Argentina/Buenos_Aires,207
AR,,San Vicente,-26.61667,-54.13333,America/Argentina/Cordoba,603
AR,,Santo Tomé,-28.55104,-56.04125,America/Argentina/Cordoba,67
AR,,Santos Lugares,-34.60306,-58.54074,America/Argentina/Buenos_Aires,25
AR,,Santa Elena,-30.94432,-59.78832,America/Argentina/Cordoba,67
AR,,San Pedro,-33.67918,-59.66633,America/Argentina/Buenos_Aires,30
AR,,San Pedro,-26.6218,-54.10902,America/Argentina/Cordoba,554
AR,,San Luis del Palmar,-27.50766,-58.55625,America/Argentina/Cordoba,61
AR,,San Lorenzo,-28.13442,-58.76685,America/Argentina/Cordoba,63
AR,,San Javier,-30.57781,-59.9317,America/Argentina/Cordoba,27
AR,,San Isidro,-34.46971,-58.52111,America/Argentina/Buenos_Aires,16
AR,,San Antonio de Padua,-34.66267,-58.69819,America/Argentina/Buenos_Aires,20
AR,,Saladas,-28.25504,-58.62386,America/Argentina/Cordoba,74
AR,,Retiro,-34.58333,-58.38333,America/Argentina/Buenos_Aires,7
AR,,Resistencia,-27.46056,-58.98389,America/Argentina/Cordoba,56
AR,,Reconquista,-29.15,-59.65,America/Argentina/Cordoba,50
AR,,Quilmes,-34.72065,-58.25454,America/Argentina/Buenos_Aires,24
AR,,Puerto Rico,-26.8089,-55.02147,America/Argentina/Cordoba,188
AR,,Puerto Iguazú,-25.59912,-54.57355,America/Argentina/Cordoba,177
AR,,Puerto Esperanza,-26.02267,-54.61356,America/Argentina/Cordoba,204
AR,,Puerto Eldorado,-26.40843,-54.69463,America/Argentina/Cordoba,102
AR,,Posadas,-27.36708,-55.89608,America/Argentina/Cordoba,127
AR,,Pontevedra,-34.74947,-58.70158,America/Argentina/Buenos_Aires,20
AR,,Pirané,-25.73271,-59.10989,America/Argentina/Cordoba,65
AR,,Pilar,-34.45867,-58.91398,America/Argentina/Buenos_Aires,27
AR,,Paso de los Libres,-29.71251,-57.08771,America/Argentina/Cordoba,73
AR,,Oberá,-27.48683,-55.11994,America/Argentina/Cordoba,345
AR,,Necochea,-38.5545,-58.73961,America/Argentina/Buenos_Aires,19
AR,,Muñiz,-34.55622,-58.70739,America/Argentina/Buenos_Aires,31
AR,,Morón,-34.65118,-58.62205,America/Argentina/Buenos_Aires,25
AR,,Monte Caseros,-30.2518,-57.63537,America/Argentina/Cordoba,24
AR,,Montecarlo,-26.56849,-54.7579,America/Argentina/Cordoba,197
AR,,Merlo,-34.66536,-58.72744,America/Argentina/Buenos_Aires,13
AR,,Mercedes,-34.65072,-59.43143,America/Argentina/Buenos_Aires,40
AR,,Mercedes,-29.18416,-58.07519,America/Argentina/Cordoba,96
AR,,Haedo,-34.64239,-58.59212,America/Argentina/Buenos_Aires,29
AR,,Mar del Plata,-38.00042,-57.5562,America/Argentina/Buenos_Aires,14
AR,,Luján,-34.5664,-59.11478,America/Argentina/Buenos_Aires,17
AR,,Los Polvorines,-34.50316,-58.70596,America/Argentina/Buenos_Aires,28
AR,,La Plata,-34.92145,-57.95453,America/Argentina/Buenos_Aires,27
AR,,La Paz,-30.74179,-59.64517,America/Argentina/Cordoba,52
AR,,Jardín América,-27.04346,-55.22698,America/Argentina/Cordoba,227
AR,,Ituzaingó,-27.58504,-56.68707,America/Argentina/Cordoba,63
AR,,Hurlingham,-34.5904,-58.62904,America/Argentina/Buenos_Aires,16
AR,,Gualeguaychú,-33.00777,-58.51836,America/Argentina/Cordoba,19
AR,,Gualeguay,-33.14091,-59.31257,America/Argentina/Cordoba,13
AR,,Goya,-29.13995,-59.26343,America/Argentina/Cordoba,42
AR,,Gobernador Virasora,-28.05,-56.03333,America/Argentina/Cordoba,133
AR,,General Pacheco,-34.45256,-58.64312,America/Argentina/Buenos_Aires,13
AR,,General José de San Martín,-26.53643,-59.34138,America/Argentina/Cordoba,62
AR,,Garupá,-27.48315,-55.82924,America/Argentina/Cordoba,81
AR,,Formosa,-26.18489,-58.17313,America/Argentina/Cordoba,67
AR,,Fontana,-27.42039,-59.03731,America/Argentina/Cordoba,49
AR,,Federal,-30.95619,-58.7797,America/Argentina/Cordoba,71
AR,,Esquina,-30.01476,-59.5289,America/Argentina/Cordoba,44
AR,,El Soberbio,-27.29662,-54.19811,America/Argentina/Cordoba,128
AR,,El Palomar,-34.61771,-58.60153,America/Argentina/Buenos_Aires,20
AR,,Don Torcuato,-34.49459,-58.62729,America/Argentina/Buenos_Aires,25
AR,,Dolores,-36.31539,-57.67546,America/Argentina/Buenos_Aires,9
AR,,Curuzú Cuatiá,-29.79145,-58.0499,America/Argentina/Cordoba,62
AR,,Corrientes,-27.46784,-58.8344,America/Argentina/Cordoba,63
AR,,Concordia,-31.39195,-58.01706,America/Argentina/Cordoba,36
AR,,Concepción del Uruguay,-32.48463,-58.23217,America/Argentina/Cordoba,21
AR,,Colegiales,-34.57365,-58.44924,America/Argentina/Buenos_Aires,27
AR,,Chajarí,-30.75482,-57.98196,America/Argentina/Cordoba,35
AR,,Castelar,-34.65142,-58.64074,America/Argentina/Buenos_Aires,25
AR,,Campana,-34.16327,-58.95919,America/Argentina/Buenos_Aires,19
AR,,Buenos Aires,-34.61315,-58.37723,America/Argentina/Buenos_Aires,31
AR,,Boedo,-34.63333,-58.41667,America/Argentina/Buenos_Aires,19
AR,,Berazategui,-34.76531,-58.21278,America/Argentina/Buenos_Aires,20
AR,,Bella Vista,-34.5651,-58.69034,America/Argentina/Buenos_Aires,23
AR,,Belgrano,-34.5627,-58.45829,America/Argentina/Buenos_Aires,18
AR,,Barranqueras,-27.48132,-58.93925,America/Argentina/Cordoba,52
AR,,Barracas,-34.64966,-58.38341,America/Argentina/Buenos_Aires,10
AR,,Balcarce,-37.84638,-58.25549,America/Argentina/Buenos_Aires,126
AR,,Azul,-36.77803,-59.85848,America/Argentina/Buenos_Aires,137
AR,,Avellaneda,-29.11761,-59.65834,America/Argentina/Cordoba,52
AR,,Aristóbulo del Valle,-27.09571,-54.89344,America/Argentina/Cordoba,491
AR,,Zapala,-38.90056,-70.06674,America/Argentina/Salta,1019
AR,,Yerba Buena,-26.81298,-65.29543,America/Argentina/Tucuman,472
AR,,Villa Regina,-39.09631,-67.08374,America/Argentina/Salta,197
AR,,Villa Paula de Sarmiento,-31.4933,-68.53838,America/Argentina/San_Juan,646
AR,,Villa Nueva,-32.43289,-63.24811,America/Argentina/Cordoba,204
AR,,Villa María,-32.40751,-63.24016,America/Argentina/Cordoba,202
AR,,Villa Dolores,-31.94504,-65.19025,America/Argentina/Cordoba,522
AR,,Villa Constitución,-33.22778,-60.3297,America/Argentina/Cordoba,32
AR,,Villa Carlos Paz,-31.4183,-64.49008,America/Argentina/Cordoba,702
AR,,Villa Ángela,-27.57679,-60.71114,America/Argentina/Cordoba,74
AR,,Villa Allende,-31.29368,-64.2977,America/Argentina/Cordoba,483
AR,,Viedma,-40.81345,-62.99668,America/Argentina/Salta,8
AR,,Victoria,-32.61841,-60.15478,America/Argentina/Cordoba,52
AR,,Vera,-29.4593,-60.21261,America/Argentina/Cordoba,64
AR,,Venado Tuerto,-33.74556,-61.96885,America/Argentina/Cordoba,117
AR,,Veinticinco de Mayo,-35.43247,-60.17156,America/Argentina/Buenos_Aires,59
AR,,Ushuaia,-54.81084,-68.31591,America/Argentina/Ushuaia,6
AR,,Unquillo,-31.23717,-64.31176,America/Argentina/Cordoba,576
AR,,Tres Isletas,-26.34067,-60.43207,America/Argentina/Cordoba,102
AR,,Tres Arroyos,-38.37694,-60.27563,America/Argentina/Buenos_Aires,100
AR,,Trelew,-43.24895,-65.30505,America/Argentina/Catamarca,14
AR,,Termas de Río Hondo,-27.49362,-64.85972,America/Argentina/Cordoba,260
AR,,Tartagal,-22.51682,-63.8056,America/Argentina/Salta,467
AR,,Tafí Viejo,-26.7333,-65.26146,America/Argentina/Tucuman,617
AR,,Sunchales,-30.94404,-61.56148,America/Argentina/Cordoba,98
AR,,Santo Tomé,-31.66274,-60.7653,America/Argentina/Cordoba,19
AR,,Santiago del Estero,-27.79511,-64.26149,America/Argentina/Cordoba,188
AR,,Santa Rosa,-36.61667,-64.28333,America/Argentina/Salta,179
AR,,Santa Lucía,-31.54055,-68.49794,America/Argentina/San_Juan,628
AR,,Santa Fe,-31.64881,-60.70868,America/Argentina/Cordoba,21
AR,,San Salvador de Jujuy,-24.19457,-65.29712,America/Argentina/Jujuy,1260
AR,,San Ramón de la Nueva Orán,-23.13705,-64.32426,America/Argentina/Salta,358
AR,,San Rafael,-34.61531,-68.33238,America/Argentina/Mendoza,690
AR,,San Pedro de Jujuy,-24.23127,-64.86614,America/Argentina/Jujuy,587
AR,,San Nicolás de los Arroyos,-33.33425,-60.2108,America/Argentina/Buenos_Aires,28
AR,,San Miguel de Tucumán,-26.82414,-65.2226,America/Argentina/Tucuman,452
AR,,San Martín de los Andes,-40.15789,-71.35337,America/Argentina/Salta,651
AR,,San Martín,-33.08338,-68.47312,America/Argentina/Mendoza,656
AR,,San Luis,-33.29501,-66.33563,America/Argentina/San_Luis,729
AR,,San Justo,-30.78913,-60.59189,America/Argentina/Cordoba,59
AR,,San Juan,-31.5375,-68.53639,America/Argentina/San_Juan,649
AR,,San José de Jáchal,-30.24162,-68.74662,America/Argentina/San_Juan,1176
AR,,San Jorge,-31.89618,-61.85984,America/Argentina/Cordoba,109
AR,,San Francisco,-31.42497,-62.08404,America/Argentina/Cordoba,120
AR,,Catamarca,-28.46957,-65.78524,America/Argentina/Catamarca,545
AR,,San Antonio Oeste,-40.73193,-64.94769,America/Argentina/Salta,12
AR,,Salta,-24.7859,-65.41166,America/Argentina/Salta,1183
AR,,Rufino,-34.26827,-62.71262,America/Argentina/Cordoba,118
AR,,Rosario,-32.94682,-60.63932,America/Argentina/Cordoba,38
AR,,Río Tercero,-32.17675,-64.11295,America/Argentina/Cordoba,372
AR,,Río Segundo,-31.6501,-63.91165,America/Argentina/Cordoba,343
AR,,Río Grande,-53.78773,-67.70975,America/Argentina/Ushuaia,9
AR,,Río Gallegos,-51.62261,-69.21813,America/Argentina/Rio_Gallegos,15
AR,,Río Cuarto,-33.13044,-64.35272,America/Argentina/Cordoba,429
AR,,Río Ceballos,-31.1697,-64.3175,America/Argentina/Cordoba,709
AR,,Rawson,-43.30016,-65.10228,America/Argentina/Catamarca,13
AR,,Rafaela,-31.25033,-61.4867,America/Argentina/Cordoba,103
AR,,Quitilipi,-26.8708,-60.21537,America/Argentina/Cordoba,82
AR,,Punta Alta,-38.8805,-62.07503,America/Argentina/Buenos_Aires,3
AR,,Puerto Madryn,-42.76848,-65.03827,America/Argentina/Catamarca,11
AR,,Presidencia Roque Sáenz Peña,-26.79095,-60.44132,America/Argentina/Cordoba,90
AR,,Pocito,-31.68333,-68.58333,America/Argentina/San_Juan,608
AR,,Plottier,-38.96667,-68.23333,America/Argentina/Salta,279
AR,,Pergamino,-33.89101,-60.57462,America/Argentina/Buenos_Aires,62
AR,,Pérez,-32.99835,-60.76791,America/Argentina/Cordoba,37
AR,,Paraná,-31.73271,-60.52897,America/Argentina/Cordoba,78
AR,,Palpalá,-24.25798,-65.21358,America/Argentina/Jujuy,1058
AR,,Olavarría,-36.89384,-60.32319,America/Argentina/Buenos_Aires,163
AR,,Nueve de Julio,-35.44394,-60.88463,America/Argentina/Buenos_Aires,79
AR,,Neuquén,-38.95161,-68.0591,America/Argentina/Salta,281
AR,,Morteros,-30.71066,-62.00714,America/Argentina/Cordoba,90
AR,,Monteros,-27.16825,-65.49892,America/Argentina/Tucuman,325
AR,,Mendoza,-32.89084,-68.82717,America/Argentina/Mendoza,746
AR,,Marcos Juárez,-32.6978,-62.10672,America/Argentina/Cordoba,117
AR,,Machagai,-26.92617,-60.04852,America/Argentina/Cordoba,73
AR,,Lincoln,-34.86819,-61.52929,America/Argentina/Buenos_Aires,77
AR,,Libertador General San Martín,-23.81305,-64.79353,America/Argentina/Jujuy,464
AR,,Las Breñas,-27.08819,-61.08217,America/Argentina/Cordoba,104
AR,,La Rioja,-29.41105,-66.85067,America/Argentina/La_Rioja,502
AR,,La Falda,-31.09321,-64.48448,America/Argentina/Cordoba,932
AR,,La Calera,-31.34582,-64.33849,America/Argentina/Cordoba,476
AR,,Laboulaye,-34.12688,-63.39083,America/Argentina/Cordoba,143
AR,,Junín,-34.59391,-60.94644,America/Argentina/Buenos_Aires,73
AR,,Joaquín V. González,-25.11364,-64.12628,America/Argentina/Salta,380
AR,,Jesús María,-30.98153,-64.09424,America/Argentina/Cordoba,533
AR,,Granadero Baigorria,-32.85683,-60.71754,America/Argentina/Cordoba,32
AR,,Gobernador Gálvez,-33.03016,-60.64045,America/Argentina/Cordoba,28
AR,,General Villegas,-35.03264,-63.01484,America/Argentina/Buenos_Aires,111
AR,,General Roca,-39.03333,-67.58333,America/Argentina/Salta,237
AR,,General Pinedo,-27.32534,-61.28101,America/Argentina/Cordoba,77
AR,,General Pico,-35.6593,-63.75787,America/Argentina/Salta,112
AR,,General Mosconi,-22.59617,-63.811,America/Argentina/Salta,453
AR,,Gálvez,-32.02927,-61.22103,America/Argentina/Cordoba,57
AR,,Firmat,-33.45937,-61.4832,America/Argentina/Cordoba,109
AR,,Famaillá,-27.05452,-65.40189,America/Argentina/Tucuman,339
AR,,Esquel,-42.91147,-71.31947,America/Argentina/Catamarca,577
AR,,Esperanza,-31.4488,-60.93173,America/Argentina/Cordoba,40
AR,,Embarcación,-23.21003,-64.09965,America/Argentina/Salta,292
AR,,Embalse,-32.20681,-64.40064,America/Argentina/Cordoba,518
AR,,El Bolsón,-41.96051,-71.53336,America/Argentina/Salta,320
AR,,Diamante,-32.0671,-60.64267,America/Argentina/Cordoba,17
AR,,Deán Funes,-30.42498,-64.35274,America/Argentina/Cordoba,662
AR,,Cutral-Có,-38.93424,-69.23052,America/Argentina/Salta,613
AR,,Cruz del Eje,-30.72644,-64.80387,America/Argentina/Cordoba,465
AR,,Crespo,-32.03077,-60.30619,America/Argentina/Cordoba,87
AR,,Cosquín,-31.24525,-64.46574,America/Argentina/Cordoba,707
AR,,Coronel Suárez,-37.45859,-61.93294,America/Argentina/Buenos_Aires,228
AR,,Coronda,-31.97263,-60.91983,America/Argentina/Cordoba,19
AR,,Córdoba,-31.4135,-64.18105,America/Argentina/Cordoba,395
AR,,Comodoro Rivadavia,-45.86256,-67.494,America/Argentina/Catamarca,65
AR,,Cipolletti,-38.93392,-67.99032,America/Argentina/Salta,267
AR,,Cinco Saltos,-38.82225,-68.06293,America/Argentina/Salta,288
AR,,Chivilcoy,-34.8969,-60.01909,America/Argentina/Buenos_Aires,40
AR,,Chimbas,-31.49313,-68.53263,America/Argentina/San_Juan,638
AR,,Chilecito,-29.16195,-67.4974,America/Argentina/La_Rioja,1125
AR,,Charata,-27.21787,-61.18738,America/Argentina/Cordoba,87
AR,,Chacabuco,-34.64203,-60.47124,America/Argentina/Buenos_Aires,66
AR,,Centenario,-38.82955,-68.1318,America/Argentina/Salta,292
AR,,Caucete,-31.6515,-68.28216,America/Argentina/San_Juan,592
AR,,Catriel,-37.87552,-67.79451,America/Argentina/Salta,318
AR,,Juan José Castelli,-25.9466,-60.62008,America/Argentina/Cordoba,113
AR,,Casilda,-33.04417,-61.16806,America/Argentina/Cordoba,79
AR,,Carcarañá,-32.85679,-61.15331,America/Argentina/Cordoba,59
AR,,Capitán Bermúdez,-32.82262,-60.71852,America/Argentina/Cordoba,35
AR,,Cañada de Gómez,-32.81636,-61.39493,America/Argentina/Cordoba,93
AR,,Caleta Olivia,-46.44785,-67.52274,America/Argentina/Rio_Gallegos,19
AR,,Bell Ville,-32.63021,-62.68883,America/Argentina/Cordoba,124
AR,,Bella Vista,-27.03424,-65.30196,America/Argentina/Tucuman,366
AR,,Bahía Blanca,-38.7176,-62.26545,America/Argentina/Buenos_Aires,20
AR,,Arroyo Seco,-33.15489,-60.50863,America/Argentina/Cordoba,29
AR,,Arroyito,-31.41917,-63.05084,America/Argentina/Cordoba,147
AR,,Arrecifes,-34.06306,-60.10261,America/Argentina/Buenos_Aires,28
AR,,Añatuya,-28.4602,-62.83354,America/Argentina/Cordoba,101
AR,,Alta Gracia,-31.64978,-64.42972,America/Argentina/Cordoba,544
AR,,Allen,-38.97736,-67.82714,America/Argentina/Salta,258
AR,,Alderetes,-26.81787,-65.14202,America/Argentina/Tucuman,430
AR,,Albardón,-31.43722,-68.52556,America/Argentina/San_Juan,641
AR,,Aguilares,-27.4315,-65.61465,America/Argentina/Tucuman,341
AR,,Balvanera,-34.61032,-58.39766,America/Argentina/Buenos_Aires,35
AR,,Villa Santa Rita,-34.61082,-58.481,America/Argentina/Buenos_Aires,25
AR,,Villa Mercedes,-33.67571,-65.45783,America/Argentina/San_Luis,516
AR,,San Miguel,-34.54335,-58.71229,America/Argentina/Buenos_Aires,37
AR,,San Carlos de Bariloche,-41.14557,-71.30822,America/Argentina/Salta,839
AR,,Adrogué,-34.80041,-58.38384,America/Argentina/Buenos_Aires,28
AR,,Ingeniero Pablo Nogués,-34.47775,-58.70652,America/Argentina/Buenos_Aires,25
AR,,Villa Sarmiento,-34.63364,-58.57047,America/Argentina/Buenos_Aires,27
AR,,José C. Paz,-34.51541,-58.76813,America/Argentina/Buenos_Aires,32
AS,,Pago Pago,-14.27806,-170.7025,Pacific/Pago_Pago,144
AT,,Döbling,48.25,16.33333,Europe/Vienna,247
AT,,Wilten,47.25829,11.38808,Europe/Vienna,586
AT,,Wiener Neustadt,47.80485,16.23196,Europe/Vienna,270
AT,,Vienna,48.20849,16.37208,Europe/Vienna,193
AT,,Wetzelsdorf,47.05293,15.39923,Europe/Vienna,362
AT,,Wels,48.16667,14.03333,Europe/Vienna,317
AT,,Villach,46.61028,13.85583,Europe/Vienna,494
AT,,Telfs,47.30707,11.06817,Europe/Vienna,637
AT,,Straßgang,47.03333,15.4,Europe/Vienna,351
AT,,Stockerau,48.38333,16.21667,Europe/Vienna,171
AT,,Steyr,48.04274,14.42127,Europe/Vienna,285
AT,,Simmering,48.18333,16.43333,Europe/Vienna,163
AT,,Sankt Pölten,48.2,15.63333,Europe/Vienna,275
AT,,Sankt Peter,47.05,15.46667,Europe/Vienna,353
AT,,Sankt Peter,46.62978,14.34016,Europe/Vienna,438
AT,,Sankt Martin,46.61667,14.28333,Europe/Vienna,443
AT,,Salzburg,47.79941,13.04399,Europe/Vienna,435
AT,,Saalfelden am Steinernen Meer,47.42681,12.848,Europe/Vienna,742
AT,,Pradl,47.26539,11.4152,Europe/Vienna,579
AT,,Perchtoldsdorf,48.11935,16.26607,Europe/Vienna,257
AT,,Ottakring,48.21667,16.3,Europe/Vienna,247
AT,,Mödling,48.08605,16.28921,Europe/Vienna,222
AT,,Meidling,48.16667,16.33333,Europe/Vienna,212
AT,,Lustenau,47.42642,9.65851,Europe/Vienna,405
AT,,Linz,48.30639,14.28611,Europe/Vienna,268
AT,,Klosterneuburg,48.30521,16.32522,Europe/Vienna,192
AT,,Klagenfurt am Wörthersee,46.62472,14.30528,Europe/Vienna,450
AT,,Innsbruck,47.26266,11.39454,Europe/Vienna,587
AT,,Innere Stadt,48.20906,16.37135,Europe/Vienna,190
AT,,Penzing,48.2,16.26667,Europe/Vienna,215
AT,,Hötting,47.26815,11.36868,Europe/Vienna,666
AT,,Hohenems,47.36121,9.68694,Europe/Vienna,522
AT,,Hietzing,48.18623,16.2965,Europe/Vienna,201
AT,,Hernals,48.23333,16.26667,Europe/Vienna,339
AT,,Graz,47.06667,15.45,Europe/Vienna,363
AT,,Fünfhaus,48.19596,16.3183,Europe/Vienna,229
AT,,Floridsdorf,48.25,16.4,Europe/Vienna,159
AT,,Feldkirch,47.23306,9.6,Europe/Vienna,475
AT,,Essling,48.21289,16.52442,Europe/Vienna,154
AT,,Eggenberg,47.07,15.39871,Europe/Vienna,369
AT,,Dornbirn,47.41427,9.74195,Europe/Vienna,437
AT,,Bregenz,47.50311,9.7471,Europe/Vienna,405
AT,,Baden,48.00543,16.23264,Europe/Vienna,230
AT,,Aspern,48.21806,16.48306,Europe/Vienna,159
AT,,Amstetten,48.1229,14.87206,Europe/Vienna,277
AT,,Favoriten,48.16116,16.38233,Europe/Vienna,236
AT,,Donaustadt,48.2333,16.46002,Europe/Vienna,155
AT,,Jakomini,47.05441,15.44984,Europe/Vienna,349
AT,,Lend,47.08256,15.41589,Europe/Vienna,363
AT,,Geidorf,47.08393,15.444,Europe/Vienna,374
AT,,Sankt Leonhard,47.06924,15.45784,Europe/Vienna,366
AT,,Andritz,47.11387,15.42348,Europe/Vienna,375
AT,,Gries,47.06236,15.42421,Europe/Vienna,353
AT,,Währing,48.22611,16.34484,Europe/Vienna,192
AT,,Landstraße,48.2019,16.38792,Europe/Vienna,178
AT,,Margareten,48.1855,16.35373,Europe/Vienna,190
AT,,Mariahilf,48.19571,16.35215,Europe/Vienna,184
AT,,Neubau,48.20172,16.34715,Europe/Vienna,215
AT,,Josefstadt,48.21243,16.34549,Europe/Vienna,207
AT,,Alsergrund,48.22321,16.35506,Europe/Vienna,188
AT,,Brigittenau,48.24275,16.37551,Europe/Vienna,163
AU,,Scarborough,-31.89578,115.76431,Australia/Perth,9
AU,,Rockingham,-32.27682,115.72978,Australia/Perth,8
AU,,Perth,-31.95224,115.8614,Australia/Perth,34
AU,,Mount Isa,-20.72523,139.49727,Australia/Brisbane,363
AU,,Morphett Vale,-35.13333,138.51667,Australia/Adelaide,92
AU,,Mandurah,-32.5269,115.7217,Australia/Perth,4
AU,,Kwinana,-32.23013,115.78128,Australia/Perth,7
AU,,Gosnells,-32.081,116.0054,Australia/Perth,23
AU,,Geraldton,-28.77897,114.61459,Australia/Perth,15
AU,,Gawler,-34.60251,138.74902,Australia/Adelaide,57
AU,,Darwin,-12.46113,130.84185,Australia/Darwin,31
AU,,Byford,-32.22099,116.009,Australia/Perth,64
AU,,Busselton,-33.65249,115.3455,Australia/Perth,7
AU,,Bunbury,-33.32711,115.64137,Australia/Perth,5
AU,,Australind,-33.2792,115.71504,Australia/Perth,8
AU,,Alice Springs,-23.69748,133.88362,Australia/Darwin,583
AU,,Albany,-35.02692,117.88369,Australia/Perth,14
AU,,Adelaide,-34.92866,138.59863,Australia/Adelaide,59
AU,,Yarraville,-37.81667,144.9,Australia/Melbourne,15
AU,,Wollert,-37.58333,145.03333,Australia/Melbourne,199
AU,,Wodonga,-36.12179,146.88809,Australia/Melbourne,167
AU,,Wheelers Hill,-37.9,145.18333,Australia/Melbourne,120
AU,,Westmead,-33.80383,150.98768,Australia/Sydney,36
AU,,Werribee,-37.9,144.66667,Australia/Melbourne,27
AU,,Warwick,-28.21901,152.03438,Australia/Brisbane,462
AU,,Warrnambool,-38.38176,142.48799,Australia/Melbourne,24
AU,,Warragul,-38.15912,145.93118,Australia/Melbourne,135
AU,,Wantirna South,-37.88333,145.21667,Australia/Melbourne,71
AU,,Wangaratta,-36.35846,146.32056,Australia/Melbourne,151
AU,,Wahroonga,-33.71816,151.11561,Australia/Sydney,206
AU,,Upper Coomera,-27.87683,153.28572,Australia/Brisbane,59
AU,,Tuggeranong Administrative District,-35.41647,149.06954,Australia/Sydney,579
AU,,Truganina,-37.81667,144.75,Australia/Melbourne,41
AU,,Traralgon,-38.19528,146.5415,Australia/Melbourne,46
AU,,Townsville,-19.26639,146.80569,Australia/Brisbane,15
AU,,Toowoomba,-27.56056,151.95386,Australia/Brisbane,599
AU,,Thornbury,-37.75819,145.00583,Australia/Melbourne,68
AU,,Thomastown,-37.68333,145.01667,Australia/Melbourne,113
AU,,Templestowe,-37.75405,145.14864,Australia/Melbourne,74
AU,,Tarneit,-37.83634,144.65952,Australia/Melbourne,50
AU,,Taree,-31.91099,152.45387,Australia/Sydney,30
AU,,Tamworth,-31.09048,150.92905,Australia/Sydney,384
AU,,Sydney,-33.86785,151.20732,Australia/Sydney,58
AU,,Surry Hills,-33.88374,151.21282,Australia/Sydney,41
AU,,Surfers Paradise,-28.00274,153.42999,Australia/Brisbane,13
AU,,Sunbury,-37.57742,144.72607,Australia/Melbourne,220
AU,,Strathfield,-33.88096,151.07986,Australia/Sydney,39
AU,,Springvale,-37.94853,145.15274,Australia/Melbourne,55
AU,,South Yarra,-37.83834,144.99149,Australia/Melbourne,18
AU,,Southport,-27.96724,153.39796,Australia/Brisbane,7
AU,,Shepparton,-36.38047,145.39867,Australia/Melbourne,115
AU,,Seven Hills,-33.78333,150.93333,Australia/Sydney,47
AU,,Seaford,-38.1,145.13333,Australia/Melbourne,7
AU,,Saint Kilda,-37.8676,144.98099,Australia/Melbourne,11
AU,,Saint Ives,-33.72976,151.15977,Australia/Sydney,168
AU,,Saint Albans,-37.73333,144.8,Australia/Melbourne,81
AU,,Ryde,-33.8188,151.1062,Australia/Sydney,39
AU,,Rowville,-37.93333,145.23333,Australia/Melbourne,73
AU,,Rockhampton,-23.38032,150.50595,Australia/Brisbane,13
AU,,Rockdale,-33.95,151.13333,Australia/Sydney,42
AU,,Ringwood,-37.81667,145.23333,Australia/Melbourne,137
AU,,Richmond,-37.81819,145.00176,Australia/Melbourne,20
AU,,Reservoir,-37.71667,145,Australia/Melbourne,89
AU,,Quakers Hill,-33.73333,150.88333,Australia/Sydney,39
AU,,Preston,-37.75,145.01667,Australia/Melbourne,61
AU,,Port Melbourne,-37.83961,144.94228,Australia/Melbourne,7
AU,,Port Macquarie,-31.43084,152.90894,Australia/Sydney,10
AU,,Point Cook,-37.91482,144.75088,Australia/Melbourne,10
AU,,Pascoe Vale,-37.73333,144.93333,Australia/Melbourne,74
AU,,Palm Beach,-28.11694,153.46584,Australia/Brisbane,0
AU,,Pakenham,-38.07018,145.47411,Australia/Melbourne,44
AU,,Orange,-33.28397,149.10018,Australia/Sydney,868
AU,,Officer,-38.05916,145.40947,Australia/Melbourne,45
AU,,North Melbourne,-37.79798,144.94512,Australia/Melbourne,18
AU,,Northcote,-37.76667,145,Australia/Melbourne,52
AU,,Noble Park,-37.96667,145.16667,Australia/Melbourne,46
AU,,Newcastle,-32.92953,151.7801,Australia/Sydney,48
AU,,Nerang,-27.98941,153.33633,Australia/Brisbane,13
AU,,Narre Warren,-38.03333,145.3,Australia/Melbourne,19
AU,,Narangba,-27.20338,152.95923,Australia/Brisbane,48
AU,,Mulgrave,-37.92845,145.17708,Australia/Melbourne,81
AU,,Mount Waverley,-37.87709,145.12939,Australia/Melbourne,121
AU,,Mount Martha,-38.26667,145.01667,Australia/Melbourne,11
AU,,Mount Gambier,-37.8318,140.77919,Australia/Adelaide,41
AU,,Mount Eliza,-38.18333,145.08333,Australia/Melbourne,55
AU,,Mount Druitt,-33.76667,150.81667,Australia/Sydney,47
AU,,Mosman,-33.83902,151.23956,Australia/Sydney,24
AU,,Mornington,-38.21792,145.03876,Australia/Melbourne,25
AU,,Morayfield,-27.10876,152.94907,Australia/Brisbane,8
AU,,South Morang,-37.65,145.1,Australia/Melbourne,145
AU,,Mooroolbark,-37.78247,145.31682,Australia/Melbourne,125
AU,,Moonee Ponds,-37.76667,144.91667,Australia/Melbourne,47
AU,,Mitcham,-37.81667,145.2,Australia/Melbourne,142
AU,,Miranda,-34.03857,151.10005,Australia/Sydney,30
AU,,Mill Park,-37.66667,145.06667,Australia/Melbourne,133
AU,,Mildura,-34.18551,142.16251,Australia/Melbourne,56
AU,,Merrylands,-33.83333,150.98333,Australia/Sydney,25
AU,,Mernda,-37.60075,145.09555,Australia/Melbourne,167
AU,,Melbourne,-37.814,144.96332,Australia/Melbourne,25
AU,,Mascot,-33.92598,151.19347,Australia/Sydney,11
AU,,Maryborough,-25.54073,152.70493,Australia/Brisbane,11
AU,,Marrickville,-33.90741,151.15546,Australia/Sydney,12
AU,,Maroubra,-33.95,151.23333,Australia/Sydney,24
AU,,Manly,-33.79798,151.28826,Australia/Sydney,10
AU,,Maitland,-32.73308,151.5574,Australia/Sydney,16
AU,,Mackay,-21.15345,149.16554,Australia/Brisbane,11
AU,,Liverpool,-33.91938,150.92588,Australia/Sydney,22
AU,,Lilydale,-37.75,145.35,Australia/Melbourne,99
AU,,Lidcombe,-33.86436,151.0397,Australia/Sydney,18
AU,,Launceston,-41.43876,147.13467,Australia/Hobart,11
AU,,Lara,-38.02388,144.40617,Australia/Melbourne,13
AU,,Langwarrin,-38.16667,145.16667,Australia/Melbourne,109
AU,,Lalor,-37.66667,145.01667,Australia/Melbourne,123
AU,,Lakemba,-33.91972,151.07592,Australia/Sydney,37
AU,,Kogarah,-33.9681,151.13564,Australia/Sydney,24
AU,,Keysborough,-37.99116,145.17385,Australia/Melbourne,25
AU,,Kew,-37.80639,145.03086,Australia/Melbourne,64
AU,,Kensington,-33.92019,151.22241,Australia/Sydney,29
AU,,Hornsby,-33.70244,151.09931,Australia/Sydney,186
AU,,Hobart,-42.87936,147.32941,Australia/Hobart,19
AU,,Hawthorn South,-37.8329,145.0367,Australia/Melbourne,48
AU,,Hawthorn,-37.81992,145.0358,Australia/Melbourne,30
AU,,Hampton Park,-38.03333,145.25,Australia/Melbourne,27
AU,,Griffith,-34.28853,146.05093,Australia/Sydney,128
AU,,Greenvale,-37.63333,144.86667,Australia/Melbourne,155
AU,,Greensborough,-37.70462,145.10302,Australia/Melbourne,75
AU,,Granville,-33.8406,151.00748,Australia/Sydney,9
AU,,Goulburn,-34.75155,149.72086,Australia/Sydney,642
AU,,Gold Coast,-28.00029,153.43088,Australia/Brisbane,12
AU,,Glen Waverley,-37.87811,145.16476,Australia/Melbourne,121
AU,,Glenroy,-37.7,144.93333,Australia/Melbourne,102
AU,,Glen Iris,-37.86667,145.06667,Australia/Melbourne,30
AU,,Glenferrie,-37.83333,145.05,Australia/Melbourne,53
AU,,Gladstone,-23.84852,151.25775,Australia/Brisbane,21
AU,,Geelong,-38.14711,144.36069,Australia/Melbourne,23
AU,,Frankston East,-38.13333,145.13333,Australia/Melbourne,10
AU,,Frankston,-38.14458,145.12291,Australia/Melbourne,15
AU,,Footscray,-37.8,144.9,Australia/Melbourne,27
AU,,Fairfield,-33.86667,150.95,Australia/Sydney,26
AU,,Essendon,-37.74981,144.9109,Australia/Melbourne,49
AU,,Epping,-37.65,145.03333,Australia/Melbourne,131
AU,,Epping,-33.77271,151.08184,Australia/Sydney,97
AU,,Engadine,-34.06564,151.01266,Australia/Sydney,191
AU,,Eltham,-37.73333,145.15,Australia/Melbourne,66
AU,,Eight Mile Plains,-27.58333,153.1,Australia/Brisbane,35
AU,,Eastwood,-33.79176,151.08057,Australia/Sydney,74
AU,,Earlwood,-33.9209,151.12506,Australia/Sydney,48
AU,,Dubbo,-32.24295,148.60484,Australia/Sydney,264
AU,,Doreen,-37.6,145.15,Australia/Melbourne,159
AU,,Doncaster East,-37.78761,145.14888,Australia/Melbourne,117
AU,,Doncaster,-37.78828,145.12373,Australia/Melbourne,108
AU,,Deer Park,-37.76722,144.76657,Australia/Melbourne,62
AU,,Deception Bay,-27.19354,153.02631,Australia/Brisbane,13
AU,,Dandenong,-37.98333,145.2,Australia/Melbourne,34
AU,,Croydon,-37.8,145.28333,Australia/Melbourne,109
AU,,Cronulla,-34.06251,151.14961,Australia/Sydney,29
AU,,Cranbourne,-38.11342,145.28326,Australia/Melbourne,67
AU,,Craigieburn,-37.6,144.95,Australia/Melbourne,186
AU,,Corio,-38.08333,144.38333,Australia/Melbourne,9
AU,,Coorparoo,-27.49325,153.05826,Australia/Brisbane,9
AU,,Coogee,-33.9205,151.25522,Australia/Sydney,18
AU,,Coffs Harbour,-30.29626,153.11351,Australia/Sydney,6
AU,,Coburg,-37.75,144.96667,Australia/Melbourne,61
AU,,Clayton,-37.91667,145.11667,Australia/Melbourne,70
AU,,Wollongong,-34.424,150.89345,Australia/Sydney,29
AU,,Chatswood,-33.8,151.18333,Australia/Sydney,108
AU,,Cessnock,-32.83211,151.35623,Australia/Sydney,71
AU,,Caulfield North,-37.8739,145.02485,Australia/Melbourne,47
AU,,Castle Hill,-33.73333,151,Australia/Sydney,126
AU,,Carrum Downs,-38.09968,145.17248,Australia/Melbourne,31
AU,,Carnegie,-37.89359,145.05534,Australia/Melbourne,45
AU,,Carlton,-37.8,144.96667,Australia/Melbourne,53
AU,,Carlingford,-33.78269,151.04888,Australia/Sydney,105
AU,,Capalaba,-27.54333,153.20287,Australia/Brisbane,30
AU,,Canberra,-35.28346,149.12807,Australia/Sydney,571
AU,,Camberwell,-37.84205,145.0694,Australia/Melbourne,47
AU,,Cairns,-16.92366,145.76613,Australia/Brisbane,7
AU,,Caboolture,-27.08465,152.9511,Australia/Brisbane,21
AU,,Burwood,-33.88333,151.1,Australia/Sydney,31
AU,,Burnie,-41.05584,145.90375,Australia/Hobart,29
AU,,Bundaberg,-24.86621,152.3479,Australia/Brisbane,17
AU,,Buderim,-26.68443,153.05705,Australia/Brisbane,153
AU,,Brunswick,-37.76667,144.96667,Australia/Melbourne,51
AU,,Broken Hill,-31.9652,141.4512,Australia/Broken_Hill,317
AU,,Brisbane,-27.46794,153.02809,Australia/Brisbane,27
AU,,Brighton,-37.90561,145.00279,Australia/Melbourne,20
AU,,Boronia,-37.86667,145.28333,Australia/Melbourne,109
AU,,Blacktown,-33.76667,150.91667,Australia/Sydney,67
AU,,Bexley,-33.95,151.11667,Australia/Sydney,45
AU,,Berwick,-38.03333,145.35,Australia/Melbourne,90
AU,,Bentleigh East,-37.91928,145.05301,Australia/Melbourne,47
AU,,Bentleigh,-37.91806,145.03544,Australia/Melbourne,31
AU,,Bendigo,-36.75818,144.28024,Australia/Melbourne,221
AU,,Baulkham Hills,-33.75881,150.99292,Australia/Sydney,103
AU,,Bathurst,-33.41665,149.5806,Australia/Sydney,670
AU,,Banora Point,-28.21298,153.53634,Australia/Sydney,4
AU,,Bankstown,-33.91667,151.03333,Australia/Sydney,32
AU,,Ballarat,-37.56622,143.84957,Australia/Melbourne,445
AU,,Bairnsdale,-37.82289,147.61041,Australia/Melbourne,26
AU,,Auburn,-33.85,151.03333,Australia/Sydney,26
AU,,Ashfield,-33.88834,151.12274,Australia/Sydney,27
AU,,Ascot Vale,-37.77988,144.92276,Australia/Melbourne,29
AU,,Armidale,-30.50123,151.66553,Australia/Sydney,1053
AU,,Albany Creek,-27.35364,152.96848,Australia/Brisbane,38
AU,,Maroochydore,-26.66008,153.09953,Australia/Brisbane,6
AU,,Cheltenham,-37.96944,145.04806,Australia/Melbourne,41
AU,,Randwick,-33.91439,151.24895,Australia/Sydney,40
AU,,Dee Why,-33.7511,151.28886,Australia/Sydney,18
AU,,Umina Beach,-33.52314,151.31325,Australia/Sydney,10
AU,,Palmerston,-12.48602,130.9833,Australia/Darwin,36
AU,,Hervey Bay,-25.28762,152.76936,Australia/Brisbane,9
AU,,Sydney Central Business District,-33.86482,151.20773,Australia/Sydney,76
AU,,Kingsford,-33.92399,151.22749,Australia/Sydney,29
AU,,Springfield Lakes,-27.66757,152.92488,Australia/Brisbane,73
AU,,Bracken Ridge,-27.3171,153.03097,Australia/Brisbane,27
AU,,Kallangur,-27.25204,152.99226,Australia/Brisbane,32
AU,,North Lakes,-27.22426,153.02075,Australia/Brisbane,21
AU,,The Gap,-27.44187,152.93861,Australia/Brisbane,64
AU,,Caroline Springs,-37.74124,144.73631,Australia/Melbourne,82
AU,,Hoppers Crossing,-37.88264,144.7003,Australia/Melbourne,30
AU,,Logan City,-27.63917,153.10944,Australia/Brisbane,39
AU,,Carindale,-27.50578,153.10236,Australia/Brisbane,14
AU,,Parramatta,-33.8178,151.00348,Australia/Sydney,26
AU,,Ferntree Gully,-37.88461,145.29539,Australia/Melbourne,125
AU,,Adelaide Hills,-34.91119,138.70735,Australia/Adelaide,426
AU,,Canning Vale,-32.05799,115.91814,Australia/Perth,24
AU,,Glenmore Park,-33.79068,150.6693,Australia/Sydney,48
AU,,Southbank,-37.8228,144.96434,Australia/Melbourne,15
AU,,Docklands,-37.8149,144.95052,Australia/Melbourne,12
AU,,Helensvale,-27.91828,153.33275,Australia/Brisbane,26
AU,,Elwood,-37.88214,144.98215,Australia/Melbourne,9
AU,,Balwyn North,-37.79086,145.09386,Australia/Melbourne,59
AU,,Malvern East,-37.87397,145.04253,Australia/Melbourne,60
AU,,Brighton East,-37.90232,145.01734,Australia/Melbourne,23
AU,,Redbank Plains,-27.64613,152.85965,Australia/Brisbane,57
AU,,Labrador,-27.94402,153.39815,Australia/Brisbane,6
AU,,St Albans,-37.74496,144.80049,Australia/Melbourne,70
AU,,Endeavour Hills,-37.97695,145.25866,Australia/Melbourne,92
AU,,Kellyville,-33.71028,150.95095,Australia/Sydney,67
AU,,Taylors Lakes,-37.69863,144.78631,Australia/Melbourne,99
AU,,Cherrybrook,-33.72197,151.04607,Australia/Sydney,157
AU,,Roxburgh Park,-37.62581,144.92555,Australia/Melbourne,188
AU,,Prestons,-33.94185,150.8717,Australia/Sydney,32
AU,,Wyndham Vale,-37.89138,144.62368,Australia/Melbourne,32
AU,,Ballajura,-31.84062,115.89549,Australia/Perth,40
AU,,Willetton,-32.05251,115.88782,Australia/Perth,22
AU,,Glenwood,-33.73333,150.93284,Australia/Sydney,69
AU,,Cabramatta,-33.89743,150.93446,Australia/Sydney,18
AU,,Campsie,-33.9125,151.10279,Australia/Sydney,34
AU,,Casula,-33.95222,150.89949,Australia/Sydney,49
AU,,Cranebrook,-33.7061,150.7094,Australia/Sydney,51
AU,,Greenacre,-33.90034,151.05563,Australia/Sydney,34
AU,,Greystanes,-33.82346,150.94607,Australia/Sydney,73
AU,,Ellenbrook,-31.76737,115.96936,Australia/Perth,58
AU,,Alexandra Hills,-27.53221,153.22889,Australia/Brisbane,54
AU,,Calamvale,-27.62329,153.04785,Australia/Brisbane,61
AU,,Yagoona,-33.9049,151.01996,Australia/Sydney,49
AU,,Highton,-38.17058,144.3114,Australia/Melbourne,60
AU,,Pacific Pines,-27.93994,153.31436,Australia/Brisbane,77
AU,,Robina,-28.07071,153.39329,Australia/Brisbane,22
AU,,Paralowie,-34.75705,138.60819,Australia/Adelaide,21
AU,,Baldivis,-32.32889,115.83047,Australia/Perth,4
AU,,Dianella,-31.88822,115.87186,Australia/Perth,30
AU,,Duncraig,-31.83291,115.7759,Australia/Perth,50
AU,,Morley,-31.88775,115.9099,Australia/Perth,31
AU,,Thornlie,-32.06003,115.955,Australia/Perth,19
AU,,Landsdale,-31.8075,115.86599,Australia/Perth,54
AU,,Punchbowl,-33.92893,151.05111,Australia/Sydney,19
AU,,Parafield Gardens,-34.78254,138.61077,Australia/Adelaide,18
AU,,Hillside,-37.69047,144.74172,Australia/Melbourne,136
AU,,St Clair,-33.79728,150.7847,Australia/Sydney,49
AU,,Kirwan,-19.30323,146.72531,Australia/Brisbane,15
AU,,Bundoora,-37.69825,145.05967,Australia/Melbourne,101
AU,,Forest Lake,-27.62563,152.96883,Australia/Brisbane,57
AU,,Sunnybank Hills,-27.61025,153.05388,Australia/Brisbane,85
AU,,Rochedale South,-27.59521,153.12332,Australia/Brisbane,59
AU,,Keilor East,-37.73261,144.86504,Australia/Melbourne,68
AU,,Cranbourne East,-38.11531,145.29814,Australia/Melbourne,50
AU,,Cranbourne North,-38.07758,145.29871,Australia/Melbourne,53
AU,,Cranbourne West,-38.0965,145.26707,Australia/Melbourne,40
AU,,Narre Warren South,-38.04369,145.2923,Australia/Melbourne,48
AU,,Dandenong North,-37.96649,145.2081,Australia/Melbourne,53
AU,,Frankston South,-38.16604,145.13643,Australia/Melbourne,88
AU,,Sunshine West,-37.79117,144.81637,Australia/Melbourne,40
AU,,Altona Meadows,-37.88413,144.78367,Australia/Melbourne,9
AU,,Taylors Hill,-37.70988,144.75483,Australia/Melbourne,117
AU,,Hurstville,-33.9677,151.10149,Australia/Sydney,80
AU,,West Pennant Hills,-33.7457,151.04764,Australia/Sydney,167
AU,,Melbourne City Centre,-37.81501,144.96657,Australia/Melbourne,32
AU,,Adelaide city centre,-34.92873,138.60334,Australia/Adelaide,58
AU,,Wollongong city centre,-34.4279,150.89268,Australia/Sydney,10
AU,,Glen Waverly,-37.8744,145.16689,Australia/Melbourne,150
AW,,Tanki Leendert,12.53914,-70.02004,America/Aruba,26
AW,,San Nicolas,12.43624,-69.90713,America/Aruba,14
AW,,Oranjestad,12.52398,-70.02703,America/Aruba,22
AW,,Noord,12.56596,-70.03198,America/Aruba,11
AX,,Mariehamn,60.09726,19.93481,Europe/Mariehamn,11
AZ,,Xankandi,39.8177,46.7528,Asia/Baku,850
AZ,,Əhmədbəyli,39.88074,48.39158,Asia/Baku,-11
AZ,,Şuşa,39.76006,46.74989,Asia/Baku,1339
AZ,,Salyan,39.59621,48.98479,Asia/Baku,-17
AZ,,Saatlı,39.93214,48.36892,Asia/Baku,-7
AZ,,Neftçala,39.3768,49.247,Asia/Baku,-24
AZ,,Naxçıvan,39.20889,45.41222,Asia/Baku,887
AZ,,Lerik,38.77388,48.41497,Asia/Baku,1094
AZ,,Lankaran,38.75428,48.85062,Asia/Baku,-22
AZ,,Imishli,39.87095,48.05995,Asia/Baku,1
AZ,,Fizuli,39.60094,47.14529,Asia/Baku,419
AZ,,Jalilabad,39.20963,48.49186,Asia/Baku,39
AZ,,Pushkino,39.45833,48.545,Asia/Baku,4
AZ,,Beylagan,39.77556,47.61861,Asia/Baku,58
AZ,,Astara,38.45598,48.87498,Asia/Baku,-22
AZ,,Şirvan,39.93778,48.929,Asia/Baku,-15
AZ,,Ağdam,39.99096,46.92736,Asia/Baku,374
AZ,,Zaqatala,41.6316,46.64479,Asia/Baku,503
AZ,,Zabrat,40.47746,49.94174,Asia/Baku,23
AZ,,Yevlakh,40.61832,47.15014,Asia/Baku,17
AZ,,Göygöl,40.58584,46.3189,Asia/Baku,686
AZ,,Xaçmaz,41.46426,48.80565,Asia/Baku,47
AZ,,Ujar,40.51902,47.65423,Asia/Baku,18
AZ,,Tovuz,40.99249,45.62838,Asia/Baku,421
AZ,,Terter,40.34201,46.93161,Asia/Baku,256
AZ,,Sumqayıt,40.58972,49.66861,Asia/Baku,-11
AZ,,Qaraçuxur,40.39667,49.97361,Asia/Baku,51
AZ,,Shamkhor,40.82975,46.0178,Asia/Baku,462
AZ,,Shamakhi,40.63141,48.64137,Asia/Baku,687
AZ,,Sheki,41.19194,47.17056,Asia/Baku,549
AZ,,Sabunçu,40.4425,49.94806,Asia/Baku,26
AZ,,Sabirabad,40.00869,48.47701,Asia/Baku,-11
AZ,,Qusar,41.4275,48.4302,Asia/Baku,681
AZ,,Quba,41.36108,48.51341,Asia/Baku,600
AZ,,Hacıqabul,40.03874,48.94286,Asia/Baku,0
AZ,,Qazax,41.09246,45.36561,Asia/Baku,378
AZ,,Hacı Zeynalabdin,40.62333,49.55861,Asia/Baku,-17
AZ,,Mingelchaur,40.76395,47.05953,Asia/Baku,26
AZ,,Maştağa,40.52983,50.00616,Asia/Baku,19
AZ,,Mardakan,40.49182,50.14292,Asia/Baku,-4
AZ,,Lokbatan,40.3256,49.73376,Asia/Baku,4
AZ,,Kyurdarmir,40.34257,48.15649,Asia/Baku,7
AZ,,Khirdalan,40.44808,49.75502,Asia/Baku,75
AZ,,İsmayıllı,40.78485,48.15141,Asia/Baku,579
AZ,,Yeni Suraxanı,40.43026,50.03598,Asia/Baku,12
AZ,,Göyçay,40.65055,47.74219,Asia/Baku,122
AZ,,Hövsan,40.37444,50.08528,Asia/Baku,-19
AZ,,Ganja,40.68278,46.36056,Asia/Baku,417
AZ,,Divichibazar,41.20117,48.98712,Asia/Baku,44
AZ,,Buzovna,40.51903,50.11438,Asia/Baku,-15
AZ,,Biny Selo,40.45076,50.08686,Asia/Baku,1
AZ,,Barda,40.37577,47.12619,Asia/Baku,77
AZ,,Bilajari,40.4444,49.80566,Asia/Baku,25
AZ,,Baku,40.37767,49.89201,Asia/Baku,-23
AZ,,Amirdzhan,40.42639,49.98361,Asia/Baku,18
AZ,,Aghsu,40.57028,48.40087,Asia/Baku,179
AZ,,Ağdaş,40.64699,47.4738,Asia/Baku,50
AZ,,Agdzhabedy,40.05015,47.45937,Asia/Baku,15
AZ,,Bakıxanov,40.41894,49.96693,Asia/Baku,33
BA,,Zenica,44.20169,17.90397,Europe/Sarajevo,325
BA,,Visoko,43.98889,18.17806,Europe/Sarajevo,423
BA,,Velika Kladuša,45.18497,15.80579,Europe/Sarajevo,160
BA,,Tuzla,44.53842,18.66709,Europe/Sarajevo,225
BA,,Trebinje,42.71197,18.34362,Europe/Sarajevo,278
BA,,Travnik,44.22637,17.66583,Europe/Sarajevo,507
BA,,Sarajevo,43.84864,18.35644,Europe/Sarajevo,509
BA,,Prijedor,44.97991,16.71401,Europe/Sarajevo,140
BA,,Mostar,43.34333,17.80806,Europe/Sarajevo,66
BA,,Lukavac,44.54245,18.52618,Europe/Sarajevo,194
BA,,Ilidža,43.83148,18.30697,Europe/Sarajevo,495
BA,,Gradačac,44.87851,18.42764,Europe/Sarajevo,139
BA,,Gračanica,44.70307,18.3101,Europe/Sarajevo,188
BA,,Goražde,43.66795,18.97564,Europe/Sarajevo,348
BA,,Doboj,44.73179,18.08698,Europe/Sarajevo,144
BA,,Cazin,44.96694,15.94306,Europe/Sarajevo,325
BA,,Bugojno,44.05722,17.45083,Europe/Sarajevo,565
BA,,Brčko,44.86995,18.81012,Europe/Sarajevo,96
BA,,Bosanska Krupa,44.8825,16.15139,Europe/Sarajevo,153
BA,,Bijeljina,44.75874,19.21437,Europe/Sarajevo,91
BA,,Bihać,44.81694,15.87083,Europe/Sarajevo,223
BA,,Banja Luka,44.77842,17.19386,Europe/Sarajevo,164
BA,,Konjic,43.65126,17.96082,Europe/Sarajevo,286
BB,,Bridgetown,13.10732,-59.62021,America/Barbados,10
BD,,Thākurgaon,26.03097,88.46989,Asia/Dhaka,57
BD,,Teknāf,20.85829,92.29773,Asia/Dhaka,7
BD,,Tungi,23.89154,90.40232,Asia/Dhaka,13
BD,,Sylhet,24.89904,91.87198,Asia/Dhaka,26
BD,,Dohār,23.59311,90.14251,Asia/Dhaka,14
BD,,Jamālpur,24.91965,89.94812,Asia/Dhaka,23
BD,,Shibganj,25.00146,89.32266,Asia/Dhaka,26
BD,,Shibganj,24.68501,88.15638,Asia/Dhaka,30
BD,,Sātkhira,22.70817,89.07185,Asia/Dhaka,11
BD,,Sirajganj,24.45771,89.70802,Asia/Dhaka,19
BD,,Netrakona,24.88352,90.72898,Asia/Dhaka,14
BD,,Narsingdi,23.92298,90.71768,Asia/Dhaka,13
BD,,Sandwīp,22.51409,91.45491,Asia/Dhaka,7
BD,,Shāhzādpur,24.17687,89.5988,Asia/Dhaka,16
BD,,Rāmganj,23.1006,90.84989,Asia/Dhaka,14
BD,,Rājshāhi,24.374,88.60114,Asia/Dhaka,23
BD,,Pirojpur,22.57965,89.97521,Asia/Dhaka,10
BD,,Panchagarh,26.33338,88.55777,Asia/Dhaka,79
BD,,Patiya,22.29543,91.979,Asia/Dhaka,11
BD,,Parbatipur,25.66369,88.93093,Asia/Dhaka,39
BD,,Nārāyanganj,23.61352,90.50298,Asia/Dhaka,13
BD,,Nālchiti,22.63696,90.27195,Asia/Dhaka,8
BD,,Nāgarpur,24.05783,89.87696,Asia/Dhaka,15
BD,,Nageswari,25.96817,89.69153,Asia/Dhaka,33
BD,,Mymensingh,24.75636,90.40646,Asia/Dhaka,19
BD,,Muktāgācha,24.76484,90.25698,Asia/Dhaka,22
BD,,Mirzāpur,24.10287,90.09841,Asia/Dhaka,15
BD,,Maulavi Bāzār,24.48888,91.77075,Asia/Dhaka,19
BD,,Morrelgonj,22.45566,89.85584,Asia/Dhaka,8
BD,,Mehendiganj,22.82257,90.52859,Asia/Dhaka,9
BD,,Mathba,22.28616,89.95883,Asia/Dhaka,10
BD,,Lalmonirhat,25.91719,89.44595,Asia/Dhaka,38
BD,,Lākshām,23.24018,91.12143,Asia/Dhaka,10
BD,,Comilla,23.46186,91.18503,Asia/Dhaka,17
BD,,Rangpur,25.74664,89.25166,Asia/Dhaka,36
BD,,Kushtia,23.9028,89.11943,Asia/Dhaka,17
BD,,Kālīganj,23.40964,89.13801,Asia/Dhaka,16
BD,,Jhingergācha,23.11134,89.09061,Asia/Dhaka,15
BD,,Joypur Hāt,25.10147,89.02734,Asia/Dhaka,24
BD,,Ishwardi,24.12858,89.06573,Asia/Dhaka,19
BD,,Habiganj,24.38044,91.41299,Asia/Dhaka,15
BD,,Gaurnadi,22.97372,90.22376,Asia/Dhaka,12
BD,,Gafargaon,24.432,90.5585,Asia/Dhaka,16
BD,,Feni,23.0144,91.3966,Asia/Dhaka,12
BD,,Rāipur,23.0391,90.76808,Asia/Dhaka,13
BD,,Sarankhola,22.31006,89.79113,Asia/Dhaka,9
BD,,Ramna Maidan,23.73333,90.4,Asia/Dhaka,15
BD,,Dhaka,23.7104,90.40744,Asia/Dhaka,23
BD,,Chilmāri,25.55613,89.67097,Asia/Dhaka,27
BD,,Chhāgalnāiya,23.02475,91.51091,Asia/Dhaka,13
BD,,Lālmohan,22.33774,90.73708,Asia/Dhaka,10
BD,,Khagrachhari,23.10787,91.97007,Asia/Dhaka,47
BD,,Chhātak,25.03852,91.66958,Asia/Dhaka,17
BD,,Bhātpāra Abhaynagar,23.01472,89.43936,Asia/Dhaka,9
BD,,Bherāmāra,24.02452,88.99234,Asia/Dhaka,19
BD,,Bhairab Bāzār,24.0524,90.9764,Asia/Dhaka,12
BD,,Bāndarban,22.19534,92.21946,Asia/Dhaka,24
BD,,Kālia,23.043,89.63094,Asia/Dhaka,9
BD,,Baniachang,24.51863,91.35787,Asia/Dhaka,14
BD,,Bājitpur,24.21623,90.95002,Asia/Dhaka,14
BD,,Bagerhat,22.65657,89.79123,Asia/Dhaka,7
BD,,Badarganj,25.67419,89.05377,Asia/Dhaka,40
BD,,Narail,23.15509,89.49515,Asia/Dhaka,11
BD,,Tungipāra,22.89983,89.90326,Asia/Dhaka,8
BD,,Sonārgaon,23.65,90.61667,Asia/Dhaka,9
BD,,Shāhbāzpur Town,24.05296,91.17193,Asia/Dhaka,10
BD,,Sarishābāri,24.75127,89.83126,Asia/Dhaka,22
BD,,Sakhipur,24.31988,90.16943,Asia/Dhaka,25
BD,,Raojān,22.53511,91.91919,Asia/Dhaka,9
BD,,Phultala,22.71673,89.51194,Asia/Dhaka,7
BD,,Pālang,23.21824,90.35076,Asia/Dhaka,12
BD,,Pār Naogaon,24.80418,88.94875,Asia/Dhaka,20
BD,,Nagar Naluākot,24.15608,90.7728,Asia/Dhaka,19
BD,,Nabīnagar,23.88791,90.96792,Asia/Dhaka,13
BD,,Mohāmmadpur,24.89843,88.52844,Asia/Dhaka,40
BD,,Mātuail,23.71211,90.45983,Asia/Dhaka,11
BD,,Lakshmīpur,22.9443,90.83005,Asia/Dhaka,11
BD,,Kesabpur,22.90725,89.21954,Asia/Dhaka,7
BD,,Kāfrul,23.78822,90.37359,Asia/Dhaka,13
BD,,Gazipur,23.99844,90.42234,Asia/Dhaka,12
BD,,Hājīganj,23.25191,90.85508,Asia/Dhaka,13
BD,,Farīdpur,23.60612,89.84064,Asia/Dhaka,15
BD,,Dukuria,23.71095,90.37414,Asia/Dhaka,9
BD,,Dohazāri,22.16385,92.07333,Asia/Dhaka,12
BD,,Dinajpur,25.62745,88.63779,Asia/Dhaka,42
BD,,Uttar Char Fasson,22.22647,90.71275,Asia/Dhaka,7
BD,,Chattogram,22.3384,91.83168,Asia/Dhaka,15
BD,,Char Bhadrāsan,23.30916,90.22698,Asia/Dhaka,11
BD,,Bhātāra,23.8,90.45,Asia/Dhaka,4
BD,,Bera,24.07821,89.63262,Asia/Dhaka,14
BD,,Burhānuddin,22.49518,90.72391,Asia/Dhaka,9
BD,,Āshuganj City,24.04016,91.0117,Asia/Dhaka,17
BD,,Sātkania,22.07639,92.04955,Asia/Dhaka,13
BD,,Cox’s Bāzār,21.43973,92.00955,Asia/Dhaka,2
BD,,Khulna,22.80979,89.56439,Asia/Dhaka,8
BD,,Bhola,22.68759,90.64403,Asia/Dhaka,7
BD,,Barishal,22.70497,90.37013,Asia/Dhaka,10
BD,,Rāngāmāti,22.64317,92.19186,Asia/Dhaka,44
BD,,Jessore,23.16971,89.21371,Asia/Dhaka,15
BD,,Pābna,24.00644,89.2372,Asia/Dhaka,19
BD,,Tāngāil,24.24984,89.91655,Asia/Dhaka,17
BD,,Bogra,24.85098,89.37108,Asia/Dhaka,26
BD,,Pīrgaaj,25.85587,88.35943,Asia/Dhaka,49
BD,,Nawābganj,24.59025,88.27444,Asia/Dhaka,28
BD,,Madaripur,23.17097,90.20935,Asia/Dhaka,10
BD,,Sherpur,25.01881,90.01751,Asia/Dhaka,25
BD,,Kishorganj,24.43944,90.78291,Asia/Dhaka,16
BD,,Savar,23.84858,90.25002,Asia/Dhaka,10
BD,,Hāthazāri,22.50515,91.81339,Asia/Dhaka,9
BD,,Manikchari,22.83957,91.84128,Asia/Dhaka,33
BD,,Bhāndāria,22.48898,90.06273,Asia/Dhaka,13
BD,,Bibir Hat,22.68347,91.79058,Asia/Dhaka,13
BD,,Saidpur,25.77769,88.89169,Asia/Dhaka,43
BD,,Puthia,24.36537,88.83431,Asia/Dhaka,20
BD,,Natore,24.41112,88.98673,Asia/Dhaka,22
BD,,Dhanmondi,23.74,90.385,Asia/Dhaka,16
BD,,Pallabi,23.825,90.37,Asia/Dhaka,14
BD,,Azimpur,23.7298,90.3854,Asia/Dhaka,14
BD,,Paotana Hat,25.66473,89.5026,Asia/Dhaka,29
BD,,Karnaphuli,22.69056,92.23472,Asia/Dhaka,46
BD,,Paltan,23.73625,90.41426,Asia/Dhaka,18
BD,,Mirpur Model Thana,23.80931,90.36093,Asia/Dhaka,24
BE,,Zwijndrecht,51.21979,4.32664,Europe/Brussels,7
BE,,Zwevegem,50.81268,3.33848,Europe/Brussels,30
BE,,Zottegem,50.86955,3.81052,Europe/Brussels,63
BE,,Zonhoven,50.99064,5.36819,Europe/Brussels,44
BE,,Zolder,51.02455,5.30983,Europe/Brussels,39
BE,,Zemst,50.98318,4.46079,Europe/Brussels,11
BE,,Zele,51.06566,4.0403,Europe/Brussels,6
BE,,Zedelgem,51.14236,3.1368,Europe/Brussels,9
BE,,Zaventem,50.88365,4.47298,Europe/Brussels,46
BE,,Wondelgem,51.08705,3.70909,Europe/Brussels,6
BE,,Woluwe-Saint-Lambert,50.84389,4.42912,Europe/Brussels,72
BE,,Wilrijk,51.16734,4.39513,Europe/Brussels,16
BE,,Willebroek,51.06041,4.36019,Europe/Brussels,4
BE,,Wevelgem,50.8,3.16667,Europe/Brussels,15
BE,,Wetteren,51.00526,3.88341,Europe/Brussels,16
BE,,Westerlo,51.09049,4.91544,Europe/Brussels,14
BE,,Wervik,50.78069,3.03854,Europe/Brussels,18
BE,,Wavre,50.71717,4.60138,Europe/Brussels,72
BE,,Watermael-Boitsfort,50.80154,4.41436,Europe/Brussels,96
BE,,Waterloo,50.71469,4.3991,Europe/Brussels,119
BE,,Waregem,50.88898,3.42756,Europe/Brussels,13
BE,,Walcourt,50.25401,4.43796,Europe/Brussels,187
BE,,Visé,50.7376,5.69907,Europe/Brussels,86
BE,,Vilvoorde,50.92814,4.42938,Europe/Brussels,19
BE,,Verviers,50.58907,5.86241,Europe/Brussels,201
BE,,Uccle,50.80225,4.33943,Europe/Brussels,48
BE,,Turnhout,51.32254,4.94471,Europe/Brussels,29
BE,,Tubize,50.69059,4.2009,Europe/Brussels,39
BE,,Tournai,50.60715,3.38932,Europe/Brussels,24
BE,,Torhout,51.0656,3.10085,Europe/Brussels,22
BE,,Tongeren,50.78054,5.46484,Europe/Brussels,107
BE,,Tienen,50.80745,4.9378,Europe/Brussels,46
BE,,Tielt,50.99931,3.32707,Europe/Brussels,46
BE,,Tessenderlo,51.06513,5.08856,Europe/Brussels,27
BE,,Tervuren,50.82372,4.51418,Europe/Brussels,79
BE,,Temse,51.12794,4.21372,Europe/Brussels,15
BE,,Stekene,51.2099,4.03651,Europe/Brussels,7
BE,,Stabroek,51.33189,4.37127,Europe/Brussels,3
BE,,Soumagne,50.61385,5.74679,Europe/Brussels,200
BE,,Soignies,50.57904,4.07129,Europe/Brussels,89
BE,,Sint-Truiden,50.81679,5.18647,Europe/Brussels,54
BE,,Sint-Pieters-Leeuw,50.77926,4.24355,Europe/Brussels,45
BE,,Sint-Niklaas,51.16509,4.1437,Europe/Brussels,21
BE,,Sint-Kruis,51.21399,3.24949,Europe/Brussels,7
BE,,Sint-Katelijne-Waver,51.06691,4.53469,Europe/Brussels,6
BE,,Sint-Gillis-Waas,51.21914,4.12374,Europe/Brussels,5
BE,,Sint-Genesius-Rode,50.74645,4.35754,Europe/Brussels,83
BE,,Sint-Andries,51.19696,3.17891,Europe/Brussels,13
BE,,Sint-Amandsberg,51.05947,3.74943,Europe/Brussels,9
BE,,Seraing,50.58362,5.50115,Europe/Brussels,185
BE,,Schoten,51.25251,4.50268,Europe/Brussels,8
BE,,Schilde,51.24107,4.58336,Europe/Brussels,9
BE,,Schaerbeek,50.86935,4.37737,Europe/Brussels,29
BE,,Saint-Nicolas,50.62837,5.53243,Europe/Brussels,96
BE,,Saint-Josse-ten-Noode,50.8538,4.37282,Europe/Brussels,46
BE,,Saint-Gilles,50.82763,4.34389,Europe/Brussels,59
BE,,Saint-Ghislain,50.44816,3.81886,Europe/Brussels,27
BE,,Rotselaar,50.95302,4.71665,Europe/Brussels,12
BE,,Ronse,50.74574,3.6005,Europe/Brussels,42
BE,,Roeselare,50.94653,3.12269,Europe/Brussels,22
BE,,Rixensart,50.71229,4.52529,Europe/Brussels,101
BE,,Riemst,50.80995,5.60131,Europe/Brussels,105
BE,,Ranst,51.18983,4.56533,Europe/Brussels,12
BE,,Quaregnon,50.44067,3.8653,Europe/Brussels,35
BE,,Puurs,51.07409,4.28844,Europe/Brussels,4
BE,,Putte,51.05337,4.63263,Europe/Brussels,22
BE,,Poperinge,50.85386,2.72659,Europe/Brussels,19
BE,,Pont-à-Celles,50.50518,4.36887,Europe/Brussels,137
BE,,Péruwelz,50.50819,3.59373,Europe/Brussels,34
BE,,Peer,51.1303,5.45952,Europe/Brussels,64
BE,,Overijse,50.77436,4.53461,Europe/Brussels,88
BE,,Oupeye,50.71184,5.6468,Europe/Brussels,125
BE,,Oudenaarde,50.85168,3.60891,Europe/Brussels,11
BE,,Oostkamp,51.15432,3.23128,Europe/Brussels,10
BE,,Ostend,51.21551,2.927,Europe/Brussels,6
BE,,Nivelles,50.59833,4.32848,Europe/Brussels,101
BE,,Ninove,50.82776,4.02657,Europe/Brussels,17
BE,,Nijlen,51.16096,4.67008,Europe/Brussels,7
BE,,Neerpelt,51.22807,5.4427,Europe/Brussels,39
BE,,Namur,50.4669,4.86746,Europe/Brussels,88
BE,,Mouscron,50.74497,3.20639,Europe/Brussels,53
BE,,Mortsel,51.16697,4.45127,Europe/Brussels,19
BE,,Morlanwelz-Mariemont,50.45502,4.24519,Europe/Brussels,106
BE,,Montignies-sur-Sambre,50.41081,4.49109,Europe/Brussels,125
BE,,Mons,50.45413,3.95229,Europe/Brussels,56
BE,,Molenbeek-Saint-Jean,50.8499,4.31248,Europe/Brussels,39
BE,,Mol,51.19188,5.11662,Europe/Brussels,27
BE,,Middelkerke,51.18532,2.82077,Europe/Brussels,4
BE,,Merksem,51.24623,4.44903,Europe/Brussels,5
BE,,Merelbeke,50.99447,3.74621,Europe/Brussels,12
BE,,Menen,50.79722,3.12245,Europe/Brussels,18
BE,,Meise,50.93934,4.32655,Europe/Brussels,58
BE,,Mechelen-aan-de-Maas,50.96589,5.69144,Europe/Brussels,39
BE,,Mechelen,51.02574,4.47762,Europe/Brussels,8
BE,,Mariakerke,51.07476,3.68289,Europe/Brussels,10
BE,,Marcinelle,50.39216,4.44388,Europe/Brussels,121
BE,,Marchienne-au-Pont,50.40573,4.3953,Europe/Brussels,109
BE,,Marche-en-Famenne,50.22678,5.34416,Europe/Brussels,214
BE,,Manage,50.50312,4.23589,Europe/Brussels,134
BE,,Maldegem,51.20737,3.44511,Europe/Brussels,9
BE,,Maasmechelen,50.96545,5.69452,Europe/Brussels,39
BE,,Maaseik,51.09802,5.78379,Europe/Brussels,30
BE,,Louvain-la-Neuve,50.66829,4.61443,Europe/Brussels,117
BE,,Lommel,51.23074,5.31349,Europe/Brussels,48
BE,,Lokeren,51.10364,3.99339,Europe/Brussels,6
BE,,Lochristi,51.09644,3.83194,Europe/Brussels,8
BE,,Lille,51.24197,4.82313,Europe/Brussels,17
BE,,Lier,51.13128,4.57041,Europe/Brussels,9
BE,,Liège,50.63373,5.56749,Europe/Brussels,66
BE,,Leuven,50.87959,4.70093,Europe/Brussels,28
BE,,Lessines,50.71104,3.83579,Europe/Brussels,23
BE,,Lede,50.96626,3.98594,Europe/Brussels,25
BE,,Lebbeke,51.00464,4.13457,Europe/Brussels,6
BE,,Lanaken,50.89318,5.6468,Europe/Brussels,63
BE,,La Louvière,50.48657,4.18785,Europe/Brussels,133
BE,,Kortrijk,50.82803,3.26487,Europe/Brussels,22
BE,,Kortenberg,50.88982,4.54353,Europe/Brussels,47
BE,,Kontich,51.13213,4.44706,Europe/Brussels,20
BE,,Koksijde,51.11642,2.63772,Europe/Brussels,8
BE,,Koersel,51.05909,5.27121,Europe/Brussels,44
BE,,Koekelberg,50.86117,4.33136,Europe/Brussels,35
BE,,Knokke-Heist,51.35,3.26667,Europe/Brussels,5
BE,,Kessel-Lo,50.88549,4.73717,Europe/Brussels,35
BE,,Kasterlee,51.24118,4.96651,Europe/Brussels,22
BE,,Kapellen,51.31377,4.43539,Europe/Brussels,8
BE,,Kalmthout,51.38442,4.47556,Europe/Brussels,21
BE,,Jumet,50.4422,4.43745,Europe/Brussels,172
BE,,Jette,50.87309,4.33419,Europe/Brussels,41
BE,,Jambes,50.45636,4.87166,Europe/Brussels,84
BE,,Izegem,50.91396,3.21378,Europe/Brussels,18
BE,,Ixelles,50.83333,4.36667,Europe/Brussels,84
BE,,Ieper,50.85114,2.88569,Europe/Brussels,24
BE,,Huy,50.51894,5.23284,Europe/Brussels,75
BE,,Houthalen,51.03427,5.37429,Europe/Brussels,64
BE,,Hoogstraten,51.40029,4.76034,Europe/Brussels,21
BE,,Hoboken,51.17611,4.34844,Europe/Brussels,12
BE,,Heverlee,50.86426,4.69597,Europe/Brussels,31
BE,,Heusy,50.57457,5.86618,Europe/Brussels,273
BE,,Heusden,51.03664,5.28013,Europe/Brussels,39
BE,,Herzele,50.88681,3.89014,Europe/Brussels,58
BE,,Herve,50.64083,5.79353,Europe/Brussels,300
BE,,Herstal,50.66415,5.62346,Europe/Brussels,81
BE,,Herentals,51.17655,4.83248,Europe/Brussels,16
BE,,Herent,50.90861,4.67056,Europe/Brussels,27
BE,,Helchteren,51.05591,5.38244,Europe/Brussels,72
BE,,Heist-op-den-Berg,51.07537,4.72827,Europe/Brussels,36
BE,,Hasselt,50.93106,5.33781,Europe/Brussels,42
BE,,Harelbeke,50.85343,3.30935,Europe/Brussels,16
BE,,Hamme,51.09822,4.13705,Europe/Brussels,6
BE,,Halle,50.73385,4.23454,Europe/Brussels,34
BE,,Haaltert,50.90634,4.00093,Europe/Brussels,43
BE,,Grivegnée,50.62148,5.61101,Europe/Brussels,99
BE,,Grimbergen,50.93409,4.37213,Europe/Brussels,29
BE,,Gilly,50.42449,4.4789,Europe/Brussels,152
BE,,Geraardsbergen,50.77343,3.88223,Europe/Brussels,32
BE,,Gentbrugge,51.03692,3.76509,Europe/Brussels,10
BE,,Gent,51.05,3.71667,Europe/Brussels,10
BE,,Genk,50.965,5.50082,Europe/Brussels,66
BE,,Gembloux,50.56149,4.69889,Europe/Brussels,158
BE,,Geel,51.16557,4.98917,Europe/Brussels,22
BE,,Ganshoren,50.87065,4.31531,Europe/Brussels,49
BE,,Frameries,50.40578,3.89603,Europe/Brussels,113
BE,,Forest,50.81678,4.32775,Europe/Brussels,52
BE,,Fleurus,50.48351,4.55006,Europe/Brussels,158
BE,,Fléron,50.61516,5.68062,Europe/Brussels,258
BE,,Flémalle-Haute,50.59994,5.44471,Europe/Brussels,175
BE,,Evergem,51.11306,3.70976,Europe/Brussels,9
BE,,Evere,50.87441,4.39905,Europe/Brussels,50
BE,,Eupen,50.6279,6.03647,Europe/Brussels,298
BE,,Etterbeek,50.83272,4.38835,Europe/Brussels,71
BE,,Ekeren,51.28087,4.41813,Europe/Brussels,3
BE,,Eeklo,51.18703,3.55654,Europe/Brussels,6
BE,,Edegem,51.15662,4.44504,Europe/Brussels,17
BE,,Duffel,51.09554,4.50903,Europe/Brussels,5
BE,,Dour,50.39583,3.77792,Europe/Brussels,93
BE,,Dilbeek,50.84799,4.25972,Europe/Brussels,84
BE,,Diksmuide,51.03248,2.86384,Europe/Brussels,9
BE,,Diest,50.98923,5.05062,Europe/Brussels,22
BE,,Diepenbeek,50.90769,5.41875,Europe/Brussels,50
BE,,Deurne,51.22134,4.46595,Europe/Brussels,8
BE,,Destelbergen,51.05952,3.79899,Europe/Brussels,6
BE,,Dendermonde,51.02869,4.10106,Europe/Brussels,6
BE,,Denderleeuw,50.88506,4.07601,Europe/Brussels,17
BE,,Deinze,50.98175,3.53096,Europe/Brussels,10
BE,,Courcelles,50.46379,4.3747,Europe/Brussels,160
BE,,Colfontaine,50.4141,3.85569,Europe/Brussels,79
BE,,Chaudfontaine,50.5828,5.6341,Europe/Brussels,218
BE,,Châtelineau,50.41499,4.52016,Europe/Brussels,111
BE,,Châtelet,50.40338,4.52826,Europe/Brussels,118
BE,,Charleroi,50.41136,4.44448,Europe/Brussels,136
BE,,Brussels,50.85045,4.34878,Europe/Brussels,28
BE,,Brugge,51.20892,3.22424,Europe/Brussels,13
BE,,Brasschaat,51.2912,4.49182,Europe/Brussels,10
BE,,Braine-le-Comte,50.60979,4.14658,Europe/Brussels,96
BE,,Braine-l'Alleud,50.68363,4.36784,Europe/Brussels,93
BE,,Boussu,50.43417,3.7944,Europe/Brussels,32
BE,,Bornem,51.09716,4.24364,Europe/Brussels,6
BE,,Borgerhout,51.20957,4.43539,Europe/Brussels,7
BE,,Boom,51.09242,4.3717,Europe/Brussels,10
BE,,Blauwput,50.88587,4.72415,Europe/Brussels,25
BE,,Blankenberge,51.31306,3.13227,Europe/Brussels,6
BE,,Binche,50.41155,4.16469,Europe/Brussels,92
BE,,Bilzen,50.87325,5.5184,Europe/Brussels,53
BE,,Beveren,51.21187,4.25633,Europe/Brussels,12
BE,,Bevere,50.8496,3.5873,Europe/Brussels,21
BE,,Beringen,51.04954,5.22606,Europe/Brussels,39
BE,,Berchem-Sainte-Agathe,50.86567,4.29557,Europe/Brussels,63
BE,,Berchem,51.19021,4.43264,Europe/Brussels,12
BE,,Beersel,50.76589,4.3002,Europe/Brussels,43
BE,,Beerse,51.31927,4.85304,Europe/Brussels,27
BE,,Balen,51.16837,5.17027,Europe/Brussels,34
BE,,Auderghem,50.81667,4.43333,Europe/Brussels,75
BE,,Ath,50.62937,3.77801,Europe/Brussels,32
BE,,Assebroek,51.19367,3.2623,Europe/Brussels,5
BE,,Asse,50.91011,4.19836,Europe/Brussels,81
BE,,Arlon,49.68333,5.81667,Europe/Brussels,421
BE,,Antwerpen,51.22047,4.40026,Europe/Brussels,13
BE,,Ans,50.6623,5.52029,Europe/Brussels,181
BE,,Anderlecht,50.83619,4.31454,Europe/Brussels,27
BE,,Andenne,50.48941,5.09513,Europe/Brussels,78
BE,,Aarschot,50.98715,4.83695,Europe/Brussels,14
BE,,Aalter,51.09017,3.44693,Europe/Brussels,17
BE,,Aalst,50.93604,4.0355,Europe/Brussels,12
BF,,Zorgo,12.24922,-0.61527,Africa/Ouagadougou,312
BF,,Ziniaré,12.58186,-1.2971,Africa/Ouagadougou,303
BF,,Zinguédéssé,12.24661,-1.58402,Africa/Ouagadougou,309
BF,,Zabré,11.1825,-0.63222,Africa/Ouagadougou,259
BF,,Yalgo,12.93333,-0.85,Africa/Ouagadougou,302
BF,,Yako,12.9591,-2.26075,Africa/Ouagadougou,332
BF,,Tougan,13.0725,-3.0694,Africa/Ouagadougou,300
BF,,Toma,12.75844,-2.89879,Africa/Ouagadougou,287
BF,,Tô,11.44379,-2.22548,Africa/Ouagadougou,314
BF,,Titao,13.76667,-2.06667,Africa/Ouagadougou,326
BF,,Tita,11.92092,-2.51536,Africa/Ouagadougou,285
BF,,Tenkodogo,11.78,-0.36972,Africa/Ouagadougou,304
BF,,Solenzo,12.17423,-4.08477,Africa/Ouagadougou,316
BF,,Sapouy,11.55444,-1.77361,Africa/Ouagadougou,336
BF,,Saonré,12.2751,-1.57692,Africa/Ouagadougou,310
BF,,Sabou,12.06667,-2.23333,Africa/Ouagadougou,296
BF,,Saaba,12.37136,-1.41468,Africa/Ouagadougou,305
BF,,Réo,12.31963,-2.47094,Africa/Ouagadougou,300
BF,,Pouytenga,12.25162,-0.42565,Africa/Ouagadougou,318
BF,,Pô,11.16972,-1.145,Africa/Ouagadougou,319
BF,,Pissila,13.16417,-0.8225,Africa/Ouagadougou,312
BF,,Pa,12.66667,-3.95,Africa/Ouagadougou,276
BF,,Ouahigouya,13.58278,-2.42158,Africa/Ouagadougou,328
BF,,Ouagadougou,12.36566,-1.53388,Africa/Ouagadougou,299
BF,,Orodara,10.98115,-4.91885,Africa/Ouagadougou,532
BF,,Nioko I,12.39501,-1.43861,Africa/Ouagadougou,293
BF,,Nouna,12.72939,-3.86305,Africa/Ouagadougou,277
BF,,Niangoloko,10.28333,-4.91667,Africa/Ouagadougou,353
BF,,Natiaboani,11.69917,0.50611,Africa/Ouagadougou,255
BF,,Mogtédo,12.28444,-0.83722,Africa/Ouagadougou,284
BF,,Manga,11.66361,-1.07306,Africa/Ouagadougou,286
BF,,Léo,11.10033,-2.10654,Africa/Ouagadougou,349
BF,,Koupéla,12.17864,-0.35103,Africa/Ouagadougou,306
BF,,Kouka,13.4345,-1.61361,Africa/Ouagadougou,317
BF,,Koudougou,12.25263,-2.36272,Africa/Ouagadougou,303
BF,,Korsimoro,12.82506,-1.06737,Africa/Ouagadougou,293
BF,,Kongoussi,13.32583,-1.53472,Africa/Ouagadougou,330
BF,,Kombissiri,12.06884,-1.33644,Africa/Ouagadougou,311
BF,,Kokologo,12.19392,-1.87687,Africa/Ouagadougou,328
BF,,Kindi,12.4386,-2.03279,Africa/Ouagadougou,341
BF,,Kaya,13.09167,-1.08444,Africa/Ouagadougou,341
BF,,Karankasso,11.22191,-4.64423,Africa/Ouagadougou,352
BF,,Houndé,11.5,-3.51667,Africa/Ouagadougou,349
BF,,Gourcy,13.20776,-2.35893,Africa/Ouagadougou,331
BF,,Gayéri,12.64824,0.49314,Africa/Ouagadougou,281
BF,,Garango,11.8,-0.55056,Africa/Ouagadougou,304
BF,,Gaoua,10.33137,-3.18202,Africa/Ouagadougou,337
BF,,Fara Department,11.52941,-2.76797,Africa/Ouagadougou,264
BF,,Fada N'gourma,12.06157,0.35843,Africa/Ouagadougou,298
BF,,Dori,14.0341,-0.03261,Africa/Ouagadougou,281
BF,,Djibo,14.0994,-1.62554,Africa/Ouagadougou,301
BF,,Diébougou,10.96209,-3.24967,Africa/Ouagadougou,290
BF,,Diapaga,12.07305,1.78838,Africa/Ouagadougou,273
BF,,Dédougou,12.46338,-3.46075,Africa/Ouagadougou,302
BF,,Dano,11.1464,-3.05784,Africa/Ouagadougou,285
BF,,Gomboussougou,11.42611,-0.77278,Africa/Ouagadougou,270
BF,,Boussé,12.66121,-1.89515,Africa/Ouagadougou,350
BF,,Bourzanga,13.67806,-1.54611,Africa/Ouagadougou,331
BF,,Boulsa,12.66664,-0.57469,Africa/Ouagadougou,313
BF,,Boromo,11.74542,-2.93006,Africa/Ouagadougou,263
BF,,Bogandé,12.9704,-0.14953,Africa/Ouagadougou,287
BF,,Bobo-Dioulasso,11.17715,-4.2979,Africa/Ouagadougou,423
BF,,Bittou,11.25806,-0.30611,Africa/Ouagadougou,242
BF,,Béguédo,11.78083,-0.73389,Africa/Ouagadougou,251
BF,,Batié,9.88333,-2.91667,Africa/Ouagadougou,307
BF,,Barogo,12.55,-0.96667,Africa/Ouagadougou,311
BF,,Banfora,10.63333,-4.76667,Africa/Ouagadougou,299
BF,,Bama,12.0357,-4.3987,Africa/Ouagadougou,350
BF,,Aribinda,14.22963,-0.86537,Africa/Ouagadougou,341
BF,,Mani,13.25833,-0.21306,Africa/Ouagadougou,264
BF,,Namponkoré,11.73748,1.77718,Africa/Ouagadougou,243
BF,,Cinkansé,11.11857,0.00993,Africa/Ouagadougou,259
BF,,Kompienga,11.08169,0.72365,Africa/Ouagadougou,159
BG,,Yambol,42.48333,26.5,Europe/Sofia,132
BG,,Vratsa,43.21,23.5625,Europe/Sofia,352
BG,,Vidin,43.99159,22.88236,Europe/Sofia,41
BG,,Velingrad,42.02754,23.99155,Europe/Sofia,750
BG,,Veliko Tŭrnovo,43.08124,25.62904,Europe/Sofia,207
BG,,Varna,43.21667,27.91667,Europe/Sofia,54
BG,,Targovishte,43.2512,26.57215,Europe/Sofia,186
BG,,Troyan,42.89427,24.71589,Europe/Sofia,389
BG,,Dobrich,43.56667,27.83333,Europe/Sofia,214
BG,,Svishtov,43.61875,25.35033,Europe/Sofia,74
BG,,Svilengrad,41.76836,26.19775,Europe/Sofia,53
BG,,Stara Zagora,42.43278,25.64194,Europe/Sofia,205
BG,,Dupnitsa,42.26478,23.11723,Europe/Sofia,536
BG,,Sofia,42.69751,23.32415,Europe/Sofia,562
BG,,Smolyan,41.57439,24.71204,Europe/Sofia,907
BG,,Sliven,42.68583,26.32917,Europe/Sofia,271
BG,,Silistra,44.1171,27.26056,Europe/Sofia,25
BG,,Shumen,43.27064,26.92286,Europe/Sofia,237
BG,,Sevlievo,43.02295,25.10364,Europe/Sofia,210
BG,,Sandanski,41.56667,23.28333,Europe/Sofia,246
BG,,Samokov,42.33855,23.55805,Europe/Sofia,956
BG,,Ruse,43.84872,25.9534,Europe/Sofia,39
BG,,Razgrad,43.53333,26.51667,Europe/Sofia,197
BG,,Rakovski,42.28819,24.96779,Europe/Sofia,174
BG,,Parvomay,42.1,25.21667,Europe/Sofia,134
BG,,Popovo,43.35,26.23333,Europe/Sofia,190
BG,,Plovdiv,42.15,24.75,Europe/Sofia,169
BG,,Pleven,43.41667,24.61667,Europe/Sofia,97
BG,,Petrich,41.39846,23.20702,Europe/Sofia,185
BG,,Peshtera,42.03372,24.29995,Europe/Sofia,440
BG,,Pernik,42.6,23.03333,Europe/Sofia,712
BG,,Pazardzhik,42.2,24.33333,Europe/Sofia,213
BG,,Panagyurishte,42.49518,24.19021,Europe/Sofia,518
BG,,Nova Zagora,42.48333,26.01667,Europe/Sofia,130
BG,,Montana,43.4125,23.225,Europe/Sofia,148
BG,,Lovech,43.13333,24.71667,Europe/Sofia,179
BG,,Lom,43.8317,23.23793,Europe/Sofia,37
BG,,Kyustendil,42.28389,22.69111,Europe/Sofia,519
BG,,Kardzhali,41.65,25.36667,Europe/Sofia,278
BG,,Haskovo,41.93415,25.55557,Europe/Sofia,195
BG,,Harmanli,41.93233,25.90172,Europe/Sofia,61
BG,,Kazanlak,42.61667,25.4,Europe/Sofia,366
BG,,Karnobat,42.65,26.98333,Europe/Sofia,208
BG,,Karlovo,42.63333,24.8,Europe/Sofia,406
BG,,Gotse Delchev,41.56667,23.73333,Europe/Sofia,535
BG,,Gorna Oryahovitsa,43.12778,25.70167,Europe/Sofia,146
BG,,Gabrovo,42.87472,25.33417,Europe/Sofia,538
BG,,Dimitrovgrad,42.05,25.6,Europe/Sofia,111
BG,,Chirpan,42.2,25.33333,Europe/Sofia,195
BG,,Burgas,42.50606,27.46781,Europe/Sofia,36
BG,,Botevgrad,42.90799,23.79274,Europe/Sofia,385
BG,,Blagoevgrad,42.01667,23.1,Europe/Sofia,390
BG,,Berkovitsa,43.23741,23.12509,Europe/Sofia,369
BG,,Aytos,42.70322,27.25464,Europe/Sofia,149
BG,,Asparuhovo,43.18067,27.88823,Europe/Sofia,38
BG,,Asenovgrad,42.01667,24.86667,Europe/Sofia,226
BH,,Sitrah,26.15472,50.62056,Asia/Bahrain,5
BH,,Madīnat ‘Īsá,26.17361,50.54778,Asia/Bahrain,7
BH,,Jidd Ḩafş,26.21861,50.54778,Asia/Bahrain,6
BH,,Madīnat Ḩamad,26.11528,50.50694,Asia/Bahrain,35
BH,,Dār Kulayb,26.06861,50.50389,Asia/Bahrain,10
BH,,Al Muharraq,26.25722,50.61194,Asia/Bahrain,7
BH,,Manama,26.22787,50.58565,Asia/Bahrain,12
BH,,Ar Rifā‘,26.13,50.555,Asia/Bahrain,43
BI,,Rumonge,-3.9736,29.4386,Africa/Bujumbura,790
BI,,Gatumba,-3.33333,29.25,Africa/Bujumbura,780
BI,,Bujumbura,-3.38193,29.36142,Africa/Bujumbura,807
BI,,Gitega,-3.42708,29.92463,Africa/Bujumbura,1684
BI,,Karuzi,-3.10139,30.16278,Africa/Bujumbura,1627
BI,,Bubanza,-3.0804,29.391,Africa/Bujumbura,1079
BI,,Cibitoke,-2.8869,29.1248,Africa/Bujumbura,937
BI,,Ngozi,-2.9075,29.8306,Africa/Bujumbura,1824
BI,,Kayanza,-2.9221,29.6293,Africa/Bujumbura,1918
BI,,Kirundo,-2.5845,30.0959,Africa/Bujumbura,1403
BJ,,Zinvié,6.61738,2.35776,Africa/Porto-Novo,41
BJ,,Zé,6.78333,2.3,Africa/Porto-Novo,39
BJ,,Toviklin,6.88935,1.83722,Africa/Porto-Novo,151
BJ,,Toukountouna,10.50279,1.37437,Africa/Porto-Novo,383
BJ,,Tchaourou,8.88649,2.59753,Africa/Porto-Novo,332
BJ,,Tanguiéta,10.62118,1.26651,Africa/Porto-Novo,242
BJ,,Sinendé,10.34963,2.37906,Africa/Porto-Novo,371
BJ,,Semi,6.36667,2.61667,Africa/Porto-Novo,8
BJ,,Ségbana,10.92821,3.69429,Africa/Porto-Novo,272
BJ,,Sé,6.51115,1.82831,Africa/Porto-Novo,32
BJ,,Savé,8.03424,2.4866,Africa/Porto-Novo,190
BJ,,Savalou,7.92807,1.97558,Africa/Porto-Novo,181
BJ,,Sakété,6.73618,2.65866,Africa/Porto-Novo,80
BJ,,Porto-Novo,6.49646,2.60359,Africa/Porto-Novo,20
BJ,,Pobé,6.98008,2.6649,Africa/Porto-Novo,136
BJ,,Pèrèrè,9.79721,2.98403,Africa/Porto-Novo,424
BJ,,Péhonko,10.22746,2.00192,Africa/Porto-Novo,385
BJ,,Parakou,9.33716,2.63031,Africa/Porto-Novo,369
BJ,,Ouinhi,7.08411,2.48343,Africa/Porto-Novo,37
BJ,,Ouidah,6.36307,2.08506,Africa/Porto-Novo,17
BJ,,Ouessé,8.48639,2.42872,Africa/Porto-Novo,231
BJ,,Nikki,9.94009,3.21075,Africa/Porto-Novo,403
BJ,,Ndali,9.8636,2.72094,Africa/Porto-Novo,394
BJ,,Natitingou,10.30416,1.37962,Africa/Porto-Novo,450
BJ,,Missérété,6.55872,2.59063,Africa/Porto-Novo,34
BJ,,Matéri,10.69623,1.06307,Africa/Porto-Novo,200
BJ,,Malanville,11.86819,3.38327,Africa/Porto-Novo,164
BJ,,Lokossa,6.63869,1.71674,Africa/Porto-Novo,47
BJ,,Kouandé,6.4,2.06667,Africa/Porto-Novo,22
BJ,,Kétou,7.36332,2.59978,Africa/Porto-Novo,103
BJ,,Kérou,10.82578,2.10479,Africa/Porto-Novo,332
BJ,,Kandi,11.13417,2.93861,Africa/Porto-Novo,294
BJ,,Kalalé,10.29275,3.38367,Africa/Porto-Novo,406
BJ,,Godomè,6.38948,2.34581,Africa/Porto-Novo,8
BJ,,Glazoué,7.97252,2.22176,Africa/Porto-Novo,180
BJ,,Ekpé,6.39209,2.53725,Africa/Porto-Novo,9
BJ,,Dogbo,6.79911,1.78073,Africa/Porto-Novo,66
BJ,,Djougou,9.70853,1.66598,Africa/Porto-Novo,444
BJ,,Djidja,7.34436,1.93447,Africa/Porto-Novo,183
BJ,,Djakotomé,6.8991,1.71618,Africa/Porto-Novo,136
BJ,,Dassa-Zoumé,7.75,2.18333,Africa/Porto-Novo,156
BJ,,Cové,7.22097,2.34017,Africa/Porto-Novo,117
BJ,,Cotonou,6.36536,2.41833,Africa/Porto-Novo,7
BJ,,Kopargo,9.84108,1.54231,Africa/Porto-Novo,512
BJ,,Comé,6.40764,1.88198,Africa/Porto-Novo,29
BJ,,Boukoumbé,10.17711,1.10621,Africa/Porto-Novo,230
BJ,,Bohicon,7.17826,2.0667,Africa/Porto-Novo,166
BJ,,Bembèrèkè,10.22827,2.66335,Africa/Porto-Novo,445
BJ,,Bassila,9.00814,1.6654,Africa/Porto-Novo,388
BJ,,Banté,8.41221,1.88969,Africa/Porto-Novo,270
BJ,,Banikoara,11.29845,2.43856,Africa/Porto-Novo,312
BJ,,Banigbé,6.64756,2.70695,Africa/Porto-Novo,49
BJ,,Avrankou,6.55591,2.65123,Africa/Porto-Novo,28
BJ,,Athiémé,6.5808,1.6696,Africa/Porto-Novo,14
BJ,,Aplahoué,6.93333,1.68333,Africa/Porto-Novo,124
BJ,,Allada,6.66547,2.15138,Africa/Porto-Novo,93
BJ,,Adjarra,6.53445,2.66833,Africa/Porto-Novo,24
BJ,,Adjaouèrè,7.00228,2.60591,Africa/Porto-Novo,81
BJ,,Abomey-Calavi,6.44852,2.35566,Africa/Porto-Novo,11
BJ,,Abomey,7.18286,1.99119,Africa/Porto-Novo,228
BJ,,Ouaké,9.66167,1.38472,Africa/Porto-Novo,396
BJ,,Cobly,10.49222,0.99972,Africa/Porto-Novo,247
BJ,,Klouékanmè,6.98028,1.84222,Africa/Porto-Novo,184
BJ,,Kpozoun,7.22868,2.21317,Africa/Porto-Novo,93
BL,,Gustavia,17.89618,-62.84978,America/St_Barthelemy,6
BM,,Hamilton,32.2949,-64.78303,Atlantic/Bermuda,22
BN,,Tutong,4.80278,114.64917,Asia/Brunei,8
BN,,Seria,4.60637,114.32476,Asia/Brunei,6
BN,,Kuala Belait,4.58361,114.2312,Asia/Brunei,5
BN,,Liang,4.67747,114.49587,Asia/Brunei,14
BN,,Serasa,5.01761,115.05798,Asia/Brunei,7
BN,,Sengkurong,4.88333,114.83333,Asia/Brunei,14
BN,,Mentiri,4.97058,115.02078,Asia/Brunei,8
BN,,Bandar Seri Begawan,4.89035,114.94006,Asia/Brunei,10
BO,,Yacuiba,-22.01643,-63.67753,America/La_Paz,629
BO,,Warnes,-17.5163,-63.16778,America/La_Paz,340
BO,,Vinto,-17.39141,-66.31681,America/La_Paz,2398
BO,,Villazón,-22.08659,-65.59422,America/La_Paz,3455
BO,,Villa Yapacaní,-17.4,-63.83333,America/La_Paz,297
BO,,Villamontes,-21.26235,-63.46903,America/La_Paz,388
BO,,Viacha,-16.65,-68.3,America/La_Paz,3870
BO,,Tupiza,-21.44345,-65.71875,America/La_Paz,2961
BO,,Trinidad,-14.83333,-64.9,America/La_Paz,159
BO,,Tiquipaya,-17.33801,-66.21579,America/La_Paz,2651
BO,,Tarija,-21.53549,-64.72956,America/La_Paz,1870
BO,,Sucre,-19.03332,-65.26274,America/La_Paz,2798
BO,,Sipe Sipe,-17.45419,-66.35737,America/La_Paz,2588
BO,,El Torno,-18.00014,-63.38712,America/La_Paz,572
BO,,Santa Cruz de la Sierra,-17.78629,-63.18117,America/La_Paz,433
BO,,San Ignacio de Velasco,-16.37767,-60.96472,America/La_Paz,582
BO,,Sacaba,-17.39799,-66.03825,America/La_Paz,2710
BO,,Riberalta,-11.01026,-66.05257,America/La_Paz,145
BO,,Quillacollo,-17.39228,-66.27838,America/La_Paz,2559
BO,,Punata,-17.54234,-65.83472,America/La_Paz,2731
BO,,Potosí,-19.58361,-65.75306,America/La_Paz,3967
BO,,Oruro,-17.98333,-67.15,America/La_Paz,3936
BO,,Montero,-17.33874,-63.25093,America/La_Paz,300
BO,,Mizque,-17.94101,-65.34016,America/La_Paz,2014
BO,,Llallagua,-18.42494,-66.57778,America/La_Paz,3750
BO,,La Paz,-16.5,-68.15,America/La_Paz,3782
BO,,Laja,-16.53333,-68.38333,America/La_Paz,3856
BO,,Huanuni,-18.289,-66.83583,America/La_Paz,3963
BO,,Guayaramerín,-10.8258,-65.3581,America/La_Paz,136
BO,,Cotoca,-17.81667,-63.05,America/La_Paz,387
BO,,Colcapirhua,-17.3857,-66.23814,America/La_Paz,2561
BO,,Cochabamba,-17.3895,-66.1568,America/La_Paz,2577
BO,,Cobija,-11.02671,-68.76918,America/La_Paz,200
BO,,Caranavi,-15.83403,-67.56586,America/La_Paz,986
BO,,Camiri,-20.04063,-63.52396,America/La_Paz,761
BO,,Bermejo,-22.73206,-64.33724,America/La_Paz,416
BO,,Achocalla,-16.57386,-68.15112,America/La_Paz,3664
BO,,Ascención de Guarayos,-15.89299,-63.18855,America/La_Paz,248
BO,,San Borja,-14.85195,-66.74954,America/La_Paz,195
BQ,,Kralendijk,12.15,-68.26667,America/Kralendijk,4
BR,,Vitória do Mearim,-3.46222,-44.87056,America/Fortaleza,15
BR,,Vitória de Santo Antão,-8.11806,-35.29139,America/Recife,156
BR,,Viseu,-1.19667,-46.14,America/Belem,13
BR,,Conde,-7.25972,-34.9075,America/Fortaleza,116
BR,,Vigia,-0.85833,-48.14167,America/Belem,6
BR,,Viçosa do Ceará,-3.56222,-41.09222,America/Fortaleza,719
BR,,Viçosa,-9.37139,-36.24083,America/Maceio,227
BR,,Viana,-3.22028,-45.00361,America/Fortaleza,13
BR,,Várzea Alegre,-5.35,-40.38333,America/Fortaleza,320
BR,,Varjota,-4.19444,-40.47667,America/Fortaleza,187
BR,,Vargem Grande,-3.54306,-43.91583,America/Fortaleza,44
BR,,Valença do Piauí,-6.4075,-41.74556,America/Fortaleza,336
BR,,União dos Palmares,-9.16278,-36.03194,America/Maceio,154
BR,,União,-4.58583,-42.86417,America/Fortaleza,60
BR,,Tuntum,-5.25806,-44.64889,America/Fortaleza,109
BR,,Tucuruí,-3.76585,-49.67923,America/Belem,60
BR,,Tucumã,-0.15491,-50.0615,America/Belem,1
BR,,Trindade,-7.76194,-40.26778,America/Recife,523
BR,,Trairi,-3.27778,-39.26889,America/Fortaleza,9
BR,,Toritama,-8.00667,-36.05667,America/Recife,356
BR,,Tomé Açu,-2.41889,-48.15222,America/Belem,21
BR,,Timon,-5.09417,-42.83667,America/Fortaleza,76
BR,,Timbiras,-4.25528,-43.94056,America/Fortaleza,36
BR,,Timbaúba,-7.50528,-35.31833,America/Recife,136
BR,,Tianguá,-3.73222,-40.99167,America/Fortaleza,773
BR,,Teresina,-5.08917,-42.80194,America/Fortaleza,87
BR,,São João dos Inhamuns,-6,-40.28333,America/Fortaleza,405
BR,,Tamandaré,-8.75632,-35.09995,America/Recife,12
BR,,Tabira,-7.59083,-37.53944,America/Recife,571
BR,,Surubim,-7.83306,-35.75472,America/Recife,377
BR,,Sousa,-6.75917,-38.22806,America/Fortaleza,229
BR,,Soure,-0.71667,-48.52333,America/Belem,17
BR,,Solânea,-6.755,-35.54,America/Fortaleza,188
BR,,Sobral,-3.68611,-40.34972,America/Fortaleza,75
BR,,Sirinhaém,-8.59083,-35.11611,America/Recife,43
BR,,Sertânia,-8.07361,-37.26444,America/Recife,558
BR,,Serra Talhada,-7.99194,-38.29833,America/Recife,436
BR,,Senador Pompeu,-5.58806,-39.37167,America/Fortaleza,181
BR,,Satuba,-9.56333,-35.82444,America/Maceio,48
BR,,São Raimundo Nonato,-9.01528,-42.69944,America/Fortaleza,354
BR,,São Miguel dos Campos,-9.78111,-36.09361,America/Maceio,13
BR,,São Miguel do Guamá,-1.62667,-47.48333,America/Belem,9
BR,,São Mateus do Maranhão,-4.04167,-44.475,America/Fortaleza,47
BR,,São Luís do Quitunde,-9.31833,-35.56111,America/Maceio,7
BR,,São Luís,-2.52972,-44.30278,America/Fortaleza,29
BR,,São Lourenço da Mata,-8.00222,-35.01833,America/Recife,48
BR,,São José do Egito,-7.47889,-37.27444,America/Recife,594
BR,,São José de Ribamar,-2.55572,-44.05992,America/Fortaleza,6
BR,,São José de Mipibu,-6.07472,-35.23778,America/Fortaleza,63
BR,,São João dos Patos,-6.495,-43.70222,America/Fortaleza,346
BR,,São Gonçalo do Amarante,-3.60722,-38.96833,America/Fortaleza,23
BR,,São Félix do Xingu,-6.64472,-51.995,America/Belem,199
BR,,São Domingos do Maranhão,-5.57583,-44.38528,America/Fortaleza,179
BR,,São Bento,-6.28333,-37.75,America/Fortaleza,476
BR,,São Bento,-2.69583,-44.82139,America/Fortaleza,10
BR,,Santa Rita,-7.11389,-34.97806,America/Fortaleza,6
BR,,Santarém,-2.44306,-54.70833,America/Santarem,51
BR,,Santa Quitéria do Maranhão,-3.51556,-42.54667,America/Fortaleza,29
BR,,Santa Quitéria,-4.33194,-40.15667,America/Fortaleza,198
BR,,Santana do Ipanema,-9.37833,-37.24528,America/Maceio,240
BR,,Santa Luzia,-7.64265,-47.21738,America/Fortaleza,197
BR,,Santa Inês,-3.66667,-45.38,America/Fortaleza,31
BR,,Santa Helena,-2.23111,-45.3,America/Fortaleza,12
BR,,Santa Cruz do Capibaribe,-7.9575,-36.20472,America/Recife,445
BR,,Santa Cruz,-6.22944,-36.02278,America/Fortaleza,230
BR,,Salinópolis,-0.62099,-47.35422,America/Belem,1
BR,,Salgueiro,-8.07417,-39.11917,America/Recife,420
BR,,Russas,-4.94028,-37.97583,America/Fortaleza,26
BR,,Rio Largo,-9.47833,-35.85333,America/Maceio,97
BR,,Rio Formoso,-8.66877,-35.16277,America/Recife,87
BR,,Ribeirão,-8.51444,-35.37778,America/Recife,128
BR,,Recife,-8.05389,-34.88111,America/Recife,8
BR,,Quixeramobim,-5.19917,-39.29278,America/Fortaleza,202
BR,,Quixadá,-4.97139,-39.01528,America/Fortaleza,186
BR,,Presidente Dutra,-5.29,-44.49,America/Fortaleza,108
BR,,Santana,-0.03816,-51.17476,America/Belem,1
BR,,Porto Calvo,-9.045,-35.39833,America/Maceio,20
BR,,Portel,-1.93556,-50.82111,America/Belem,12
BR,,Pombos,-8.14139,-35.39583,America/Recife,206
BR,,Pombal,-6.77028,-37.80167,America/Fortaleza,185
BR,,Piripiri,-4.27333,-41.77694,America/Fortaleza,164
BR,,Piracuruca,-3.92806,-41.70917,America/Fortaleza,75
BR,,Pinheiro,-2.52139,-45.0825,America/Fortaleza,9
BR,,Pindaré Mirim,-3.60833,-45.34333,America/Fortaleza,24
BR,,Pilar,-9.59722,-35.95667,America/Maceio,125
BR,,Picos,-7.07694,-41.46694,America/Fortaleza,203
BR,,Petrolina,-9.39861,-40.50083,America/Recife,383
BR,,Jatobá,-9.18306,-38.26889,America/Recife,286
BR,,Pesqueira,-8.35778,-36.69639,America/Recife,655
BR,,Pentecoste,-3.79278,-39.27028,America/Fortaleza,59
BR,,Penalva,-3.29417,-45.17361,America/Fortaleza,17
BR,,Pedro II,-4.42472,-41.45861,America/Fortaleza,608
BR,,Pedra Branca,-5.45417,-39.71722,America/Fortaleza,506
BR,,Paulo Afonso,-9.40611,-38.21472,America/Bahia,245
BR,,Paulista,-7.94083,-34.87306,America/Recife,20
BR,,Patos,-7.02444,-37.28,America/Fortaleza,243
BR,,Parnamirim,-5.91556,-35.26278,America/Fortaleza,56
BR,,Parnaíba,-2.90472,-41.77667,America/Fortaleza,9
BR,,Parintins,-2.62833,-56.73583,America/Manaus,17
BR,,Parelhas,-6.68778,-36.6575,America/Fortaleza,274
BR,,Paraipaba,-3.43944,-39.14833,America/Fortaleza,34
BR,,Paragominas,-2.99565,-47.35488,America/Belem,83
BR,,Paracuru,-3.41,-39.03056,America/Fortaleza,23
BR,,Palmares,-8.68333,-35.59167,America/Recife,115
BR,,Pacatuba,-3.98417,-38.62028,America/Fortaleza,72
BR,,Pacajus,-4.1725,-38.46056,America/Fortaleza,80
BR,,Ouricuri,-7.8825,-40.08167,America/Recife,451
BR,,Orós,-6.24444,-38.91361,America/Fortaleza,193
BR,,Oriximiná,-1.76556,-55.86611,America/Santarem,34
BR,,Olinda,-8.00889,-34.85528,America/Recife,37
BR,,Oiapoque,3.84306,-51.835,America/Belem,18
BR,,Oeiras,-7.02528,-42.13111,America/Fortaleza,181
BR,,Óbidos,-1.9175,-55.51806,America/Santarem,27
BR,,Nova Russas,-4.70667,-40.56306,America/Fortaleza,239
BR,,Nova Cruz,-6.47806,-35.43389,America/Fortaleza,90
BR,,Nazaré da Mata,-7.74167,-35.22778,America/Recife,96
BR,,Natal,-5.795,-35.20944,America/Fortaleza,32
BR,,Murici,-9.30667,-35.94333,America/Maceio,98
BR,,Moreno,-8.11861,-35.09222,America/Recife,78
BR,,Morada Nova,-5.10667,-38.3725,America/Fortaleza,54
BR,,Monteiro,-7.88944,-37.12,America/Fortaleza,600
BR,,Monte Alegre,-2.00082,-54.08102,America/Santarem,57
BR,,Mombaça,-5.74306,-39.6275,America/Fortaleza,251
BR,,Moju,-1.88389,-48.76889,America/Belem,9
BR,,Mossoró,-5.1875,-37.34417,America/Fortaleza,24
BR,,Mocajuba,-2.58417,-49.50722,America/Belem,19
BR,,Miracema do Tocantins,-9.56722,-48.39167,America/Araguaina,195
BR,,Maués,-3.38361,-57.71861,America/Manaus,19
BR,,Matriz de Camaragibe,-9.15167,-35.53333,America/Maceio,10
BR,,Mari,-7.06,-35.31944,America/Fortaleza,149
BR,,Marechal Deodoro,-9.71028,-35.895,America/Maceio,12
BR,,Maragogi,-9.01222,-35.2225,America/Maceio,16
BR,,Maracanaú,-3.87667,-38.62556,America/Fortaleza,54
BR,,Marabá,-5.38146,-49.13232,America/Belem,95
BR,,Mamanguape,-6.83861,-35.12611,America/Fortaleza,39
BR,,Maceió,-9.66583,-35.73528,America/Maceio,11
BR,,Macau,-5.115,-36.63444,America/Fortaleza,7
BR,,Macapá,0.03889,-51.06639,America/Belem,17
BR,,Macaíba,-5.85833,-35.35389,America/Fortaleza,16
BR,,Limoeiro do Norte,-5.14556,-38.09806,America/Fortaleza,35
BR,,Limoeiro,-7.87472,-35.45028,America/Recife,142
BR,,Lavras da Mangabeira,-6.75333,-38.96444,America/Fortaleza,241
BR,,Lajedo,-8.66361,-36.32,America/Recife,672
BR,,Lago da Pedra,-4.56033,-45.13155,America/Fortaleza,108
BR,,Lagoa do Itaenga,-7.93611,-35.29028,America/Recife,187
BR,,Juazeiro do Norte,-7.21306,-39.31528,America/Fortaleza,413
BR,,José de Freitas,-4.75639,-42.57556,America/Fortaleza,131
BR,,João Pessoa,-7.115,-34.86306,America/Fortaleza,45
BR,,João Câmara,-5.5375,-35.81972,America/Fortaleza,152
BR,,Jaguaruana,-4.83389,-37.78111,America/Fortaleza,15
BR,,Jaguaribe,-5.89056,-38.62194,America/Fortaleza,127
BR,,Jaboatão,-8.18028,-35.00139,America/Recife,88
BR,,Itupiranga,-5.13472,-49.32667,America/Belem,95
BR,,Itacoatiara,-3.14306,-58.44417,America/Manaus,19
BR,,Itaporanga,-7.30444,-38.15028,America/Fortaleza,295
BR,,Itapissuma,-7.77639,-34.89222,America/Recife,13
BR,,Itapipoca,-3.49444,-39.57861,America/Fortaleza,103
BR,,Itapecuru Mirim,-3.3925,-44.35861,America/Fortaleza,20
BR,,Itapagé,-3.68667,-39.58611,America/Fortaleza,267
BR,,Itaituba,-4.27611,-55.98361,America/Santarem,13
BR,,Itaitinga,-3.96944,-38.52806,America/Fortaleza,64
BR,,Itabaiana,-7.32861,-35.3325,America/Fortaleza,47
BR,,Ipueiras,-7.03333,-40.45,America/Fortaleza,558
BR,,Ipubi,-7.65194,-40.14889,America/Recife,543
BR,,Ipu,-4.32222,-40.71083,America/Fortaleza,250
BR,,Ipojuca,-8.39889,-35.06389,America/Recife,29
BR,,Imperatriz,-5.52639,-47.49167,America/Fortaleza,127
BR,,Iguatu,-6.35944,-39.29861,America/Fortaleza,222
BR,,Igarapé Miri,-1.975,-48.95972,America/Belem,9
BR,,Igarapé Açu,-1.12889,-47.62,America/Belem,39
BR,,Igarassu,-7.83417,-34.90639,America/Recife,22
BR,,Icó,-6.40111,-38.86222,America/Fortaleza,156
BR,,Horizonte,-4.09802,-38.486,America/Fortaleza,95
BR,,Guaraciaba do Norte,-4.16694,-40.7475,America/Fortaleza,902
BR,,Guarabira,-6.85472,-35.49,America/Fortaleza,94
BR,,Guaiúba,-4.03972,-38.63722,America/Fortaleza,75
BR,,Gravatá,-8.20111,-35.56472,America/Recife,458
BR,,Granja,-3.12028,-40.82611,America/Fortaleza,8
BR,,Grajaú,-5.81944,-46.13861,America/Fortaleza,163
BR,,Goiana,-7.56056,-35.0025,America/Recife,21
BR,,Glória do Goitá,-8.00167,-35.29278,America/Recife,155
BR,,Garanhuns,-8.88202,-36.50216,America/Recife,950
BR,,Gameleira,-8.58444,-35.38667,America/Recife,100
BR,,Fortaleza,-3.71722,-38.54306,America/Fortaleza,18
BR,,Floriano,-6.76694,-43.0225,America/Fortaleza,114
BR,,Floresta,-8.60111,-38.56861,America/Recife,321
BR,,Eusébio,-3.89,-38.45056,America/Fortaleza,36
BR,,Extremoz,-5.70556,-35.30722,America/Fortaleza,48
BR,,Estreito,-5.78333,-43.25,America/Fortaleza,199
BR,,Esperantina,-3.90167,-42.23361,America/Fortaleza,63
BR,,Esperança,-7.03306,-35.85722,America/Fortaleza,610
BR,,Escada,-8.35917,-35.22361,America/Recife,117
BR,,Dom Pedro,-5.03825,-44.43746,America/Fortaleza,147
BR,,Demerval Lobão,-5.35833,-42.67639,America/Fortaleza,116
BR,,Delmiro Gouveia,-9.38861,-37.99917,America/Maceio,246
BR,,Custódia,-8.0875,-37.64306,America/Recife,540
BR,,Cururupu,-1.82833,-44.86833,America/Fortaleza,7
BR,,Currais Novos,-6.26083,-36.51778,America/Fortaleza,361
BR,,Cupira,-8.61667,-35.95,America/Recife,430
BR,,Crato,-7.23417,-39.40944,America/Fortaleza,430
BR,,Crateús,-5.17833,-40.6775,America/Fortaleza,297
BR,,Coroatá,-4.13,-44.12417,America/Fortaleza,37
BR,,Condado,-7.58583,-35.10583,America/Recife,135
BR,,Conceição do Araguaia,-8.26441,-49.26982,America/Belem,180
BR,,Colinas,-6.02583,-44.24917,America/Fortaleza,142
BR,,Coelho Neto,-4.25667,-43.01278,America/Fortaleza,54
BR,,Codó,-4.45528,-43.88556,America/Fortaleza,44
BR,,Chapadinha,-3.74167,-43.36028,America/Fortaleza,109
BR,,Chã Grande,-8.23833,-35.46167,America/Recife,471
BR,,Ceará Mirim,-5.63444,-35.42556,America/Fortaleza,37
BR,,Caxias,-4.85889,-43.35611,America/Fortaleza,83
BR,,Caucaia,-3.73611,-38.65306,America/Fortaleza,35
BR,,Catolé do Rocha,-6.34389,-37.74667,America/Fortaleza,303
BR,,Catende,-8.66667,-35.71667,America/Recife,172
BR,,Castanhal,-1.29389,-47.92639,America/Belem,46
BR,,Cascavel,-4.13306,-38.24194,America/Fortaleza,31
BR,,Caruaru,-8.28333,-35.97611,America/Recife,568
BR,,Carpina,-7.85083,-35.25472,America/Recife,186
BR,,Carolina,-7.33561,-47.46218,America/Fortaleza,175
BR,,Capitão Poço,-1.74639,-47.05944,America/Belem,69
BR,,Capanema,-1.19583,-47.18083,America/Belem,30
BR,,Canindé,-4.35889,-39.31167,America/Fortaleza,154
BR,,Canguaretama,-6.38,-35.12889,America/Fortaleza,6
BR,,Campos Sales,-7.07444,-40.37611,America/Fortaleza,567
BR,,Campo Maior,-4.82778,-42.16861,America/Fortaleza,128
BR,,Campo Alegre,-9.78194,-36.35083,America/Maceio,181
BR,,Campina Grande,-7.23056,-35.88111,America/Fortaleza,508
BR,,Camocim,-2.90222,-40.84111,America/Fortaleza,6
BR,,Cametá,-2.24444,-49.49583,America/Belem,11
BR,,Camaragibe,-8.02167,-34.98111,America/Recife,43
BR,,Cajueiro,-9.70926,-36.44785,America/Maceio,306
BR,,Cajazeiras,-6.89028,-38.55528,America/Fortaleza,305
BR,,Caicó,-6.45833,-37.09778,America/Fortaleza,161
BR,,Cabrobó,-8.51417,-39.31,America/Recife,327
BR,,Cabo de Santo Agostinho,-8.28773,-35.02925,America/Recife,35
BR,,Cabedelo,-6.98111,-34.83389,America/Fortaleza,7
BR,,Buriti Bravo,-5.83722,-43.83361,America/Fortaleza,227
BR,,Buíque,-8.62306,-37.15583,America/Recife,804
BR,,Breves,-1.68222,-50.48028,America/Belem,7
BR,,Brejo Santo,-7.49333,-38.98722,America/Fortaleza,386
BR,,Brejo da Madre de Deus,-8.14583,-36.37111,America/Recife,654
BR,,Bragança,-1.05361,-46.76556,America/Belem,16
BR,,Bom Conselho,-9.16972,-36.67972,America/Recife,655
BR,,Boa Viagem,-5.1275,-39.73222,America/Fortaleza,288
BR,,Bezerros,-8.23333,-35.79694,America/Recife,501
BR,,Benevides,-1.36139,-48.24472,America/Belem,31
BR,,Belo Jardim,-8.33556,-36.42417,America/Recife,620
BR,,Belém,-6.69167,-35.53333,America/Fortaleza,140
BR,,Belém,-1.45583,-48.50444,America/Belem,15
BR,,Beberibe,-4.17972,-38.13056,America/Fortaleza,20
BR,,Bayeux,-7.125,-34.93222,America/Fortaleza,12
BR,,Baturité,-4.32861,-38.88472,America/Fortaleza,169
BR,,Barreiros,-8.81833,-35.18639,America/Recife,28
BR,,Barreirinhas,-2.75556,-42.82591,America/Fortaleza,5
BR,,Barras,-4.24444,-42.29444,America/Fortaleza,89
BR,,Barra do Corda,-5.50556,-45.24333,America/Fortaleza,100
BR,,Barcarena,-1.50583,-48.62583,America/Belem,9
BR,,Barbalha,-7.31111,-39.30417,America/Fortaleza,422
BR,,Balsas,-7.5325,-46.03556,America/Fortaleza,254
BR,,Bacabal,-4.29167,-44.79167,America/Fortaleza,28
BR,,Augusto Corrêa,-1.02167,-46.635,America/Belem,7
BR,,Atalaia,-9.50194,-36.02278,America/Maceio,61
BR,,Areia Branca,-4.95611,-37.13694,America/Fortaleza,11
BR,,Arcoverde,-8.41889,-37.05389,America/Recife,670
BR,,Araripina,-7.57611,-40.49833,America/Recife,624
BR,,Arari,-3.45361,-44.78,America/Fortaleza,9
BR,,Arapiraca,-9.7525,-36.66111,America/Maceio,275
BR,,Araguaína,-7.19111,-48.20722,America/Araguaina,237
BR,,Aracati,-4.56167,-37.76972,America/Fortaleza,12
BR,,Aquiraz,-3.90139,-38.39111,America/Fortaleza,21
BR,,Apodi,-5.66417,-37.79889,America/Fortaleza,73
BR,,Ananindeua,-1.36556,-48.37222,America/Belem,19
BR,,Amaraji,-8.38306,-35.4525,America/Recife,262
BR,,Altos,-5.03806,-42.46,America/Fortaleza,192
BR,,Altamira,-3.20333,-52.20639,America/Santarem,101
BR,,Almeirim,-1.52333,-52.58167,America/Santarem,6
BR,,Alenquer,-1.94167,-54.73833,America/Santarem,32
BR,,Alagoa Grande,-7.04159,-35.62699,America/Fortaleza,171
BR,,Águas Belas,-9.11139,-37.12306,America/Recife,378
BR,,Água Preta,-8.7075,-35.53056,America/Recife,133
BR,,Afogados da Ingazeira,-7.75083,-37.63917,America/Recife,516
BR,,Açu,-5.57667,-36.90861,America/Fortaleza,36
BR,,Acopiara,-6.09528,-39.4525,America/Fortaleza,319
BR,,Acaraú,-2.88556,-40.12,America/Fortaleza,17
BR,,Abreu e Lima,-7.91167,-34.90278,America/Recife,30
BR,,Abaetetuba,-1.71806,-48.8825,America/Belem,9
BR,,Xique Xique,-10.82294,-42.72815,America/Bahia,406
BR,,Xanxerê,-26.87694,-52.40417,America/Sao_Paulo,796
BR,,Votuporanga,-20.42278,-49.97278,America/Sao_Paulo,528
BR,,Votorantim,-23.54667,-47.43778,America/Sao_Paulo,572
BR,,Volta Redonda,-22.52306,-44.10417,America/Sao_Paulo,400
BR,,Vitória da Conquista,-14.86611,-40.83944,America/Bahia,876
BR,,Vitória,-20.31944,-40.33778,America/Sao_Paulo,16
BR,,Visconde do Rio Branco,-21.01028,-42.84056,America/Sao_Paulo,343
BR,,Viradouro,-20.87306,-48.29694,America/Sao_Paulo,540
BR,,Vinhedo,-23.02972,-46.97528,America/Sao_Paulo,733
BR,,Vila Velha,-20.32972,-40.2925,America/Sao_Paulo,5
BR,,Vila Mariana,-23.58833,-46.63464,America/Sao_Paulo,643
BR,,Vila Maria,-23.51408,-46.58625,America/Sao_Paulo,731
BR,,Videira,-27.00833,-51.15167,America/Sao_Paulo,747
BR,,Viçosa,-20.75389,-42.88194,America/Sao_Paulo,656
BR,,Viana,-20.39028,-40.49611,America/Sao_Paulo,35
BR,,Viamão,-30.08111,-51.02333,America/Sao_Paulo,108
BR,,Vespasiano,-19.69194,-43.92333,America/Sao_Paulo,689
BR,,Veranópolis,-28.93611,-51.54944,America/Sao_Paulo,669
BR,,Vera Cruz,-12.63333,-41.03333,America/Bahia,533
BR,,Wenceslau Braz,-23.87389,-49.80278,America/Sao_Paulo,834
BR,,Venâncio Aires,-29.60639,-52.19194,America/Sao_Paulo,43
BR,,Vazante,-17.98694,-46.90778,America/Sao_Paulo,665
BR,,Vassouras,-22.40389,-43.6625,America/Sao_Paulo,424
BR,,Várzea Paulista,-23.21139,-46.82833,America/Sao_Paulo,755
BR,,Várzea Grande,-15.64667,-56.1325,America/Cuiaba,197
BR,,Várzea da Palma,-17.5976,-44.73367,America/Sao_Paulo,523
BR,,Varginha,-21.55139,-45.43028,America/Sao_Paulo,887
BR,,Vargem Grande do Sul,-21.83222,-46.89361,America/Sao_Paulo,725
BR,,Valparaíso,-21.22778,-50.86833,America/Sao_Paulo,443
BR,,Valinhos,-22.97056,-46.99583,America/Sao_Paulo,684
BR,,Valença,-22.24556,-43.70028,America/Sao_Paulo,560
